{"type":"FeatureCollection","crs":{"type":"name","properties":{"name":"urn:ogc:def:crs:OGC:1.3:CRS84"}},"features":[{"type":"Feature","properties":{"name":"Kabul","name_dari":"کابل","id":1,"prov_id":1,"admin_type":"province"},"geometry":{"type":"Point","coordinates":[69.33466854872084,34.554660810513965]}},{"type":"Feature","properties":{"name":"Kapisa","name_dari":"کاپیسا","id":2,"prov_id":2,"admin_type":"province"},"geometry":{"type":"Point","coordinates":[69.62261624253205,34.962896465294236]}},{"type":"Feature","properties":{"name":"Parwan","name_dari":"پروان","id":3,"prov_id":3,"admin_type":"province"},"geometry":{"type":"Point","coordinates":[68.88608888335014,34.95828040708136]}},{"type":"Feature","properties":{"name":"Maidan Wardak","name_dari":"میدان وردک","id":4,"prov_id":4,"admin_type":"province"},"geometry":{"type":"Point","coordinates":[68.21775257946963,34.30325016743568]}},{"type":"Feature","properties":{"name":"Logar","name_dari":"لوگر","id":5,"prov_id":5,"admin_type":"province"},"geometry":{"type":"Point","coordinates":[69.16848081165139,34.013494998254124]}},{"type":"Feature","properties":{"name":"Nangarhar","name_dari":"ننگرهار","id":6,"prov_id":6,"admin_type":"province"},"geometry":{"type":"Point","coordinates":[70.47571678707625,34.273607408849855]}},{"type":"Feature","properties":{"name":"Laghman","name_dari":"لغمان","id":7,"prov_id":7,"admin_type":"province"},"geometry":{"type":"Point","coordinates":[70.15968393120336,34.764205709947774]}},{"type":"Feature","properties":{"name":"Panjsher","name_dari":"پنجشیر","id":8,"prov_id":8,"admin_type":"province"},"geometry":{"type":"Point","coordinates":[69.79454695860487,35.44563355198936]}},{"type":"Feature","properties":{"name":"Baghlan","name_dari":"بغلان","id":9,"prov_id":9,"admin_type":"province"},"geometry":{"type":"Point","coordinates":[68.91420040491478,35.80445448996635]}},{"type":"Feature","properties":{"name":"Bamyan","name_dari":"بامیان","id":10,"prov_id":10,"admin_type":"province"},"geometry":{"type":"Point","coordinates":[67.23438962893012,34.80379081348707]}},{"type":"Feature","properties":{"name":"Ghazni","name_dari":"غزنی","id":11,"prov_id":11,"admin_type":"province"},"geometry":{"type":"Point","coordinates":[67.81119986360531,33.315673789775715]}},{"type":"Feature","properties":{"name":"Paktika","name_dari":"پکتیکا","id":12,"prov_id":12,"admin_type":"province"},"geometry":{"type":"Point","coordinates":[68.74385292487806,32.476856348548544]}},{"type":"Feature","properties":{"name":"Paktya","name_dari":"پکتیا","id":13,"prov_id":13,"admin_type":"province"},"geometry":{"type":"Point","coordinates":[69.38827497803949,33.6319725383044]}},{"type":"Feature","properties":{"name":"Khost","name_dari":"خوست","id":14,"prov_id":14,"admin_type":"province"},"geometry":{"type":"Point","coordinates":[69.83356417080864,33.37726368187245]}},{"type":"Feature","properties":{"name":"Kunar","name_dari":"کنر ها","id":15,"prov_id":15,"admin_type":"province"},"geometry":{"type":"Point","coordinates":[71.09399233888712,34.96601891300589]}},{"type":"Feature","properties":{"name":"Nuristan","name_dari":"نورستان","id":16,"prov_id":16,"admin_type":"province"},"geometry":{"type":"Point","coordinates":[70.78845348547482,35.41688873789287]}},{"type":"Feature","properties":{"name":"Badakhshan","name_dari":"بدخشان","id":17,"prov_id":17,"admin_type":"province"},"geometry":{"type":"Point","coordinates":[71.45621273862919,37.03784814976502]}},{"type":"Feature","properties":{"name":"Takhar","name_dari":"تخار","id":18,"prov_id":18,"admin_type":"province"},"geometry":{"type":"Point","coordinates":[69.77882123904945,36.70153614995096]}},{"type":"Feature","properties":{"name":"Kunduz","name_dari":"کندز","id":19,"prov_id":19,"admin_type":"province"},"geometry":{"type":"Point","coordinates":[68.74649170472657,36.84323699577876]}},{"type":"Feature","properties":{"name":"Samangan","name_dari":"سمنگان","id":20,"prov_id":20,"admin_type":"province"},"geometry":{"type":"Point","coordinates":[67.70248008619144,35.97246555183361]}},{"type":"Feature","properties":{"name":"Balkh","name_dari":"بلخ","id":21,"prov_id":21,"admin_type":"province"},"geometry":{"type":"Point","coordinates":[67.07840634791528,36.66991456663939]}},{"type":"Feature","properties":{"name":"Sar-e-Pul","name_dari":"سرپل","id":22,"prov_id":22,"admin_type":"province"},"geometry":{"type":"Point","coordinates":[66.13886854825468,35.714497145660225]}},{"type":"Feature","properties":{"name":"Ghor","name_dari":"غور","id":23,"prov_id":23,"admin_type":"province"},"geometry":{"type":"Point","coordinates":[64.92872607534467,34.17940040925639]}},{"type":"Feature","properties":{"name":"Daykundi","name_dari":"دایکندی","id":24,"prov_id":24,"admin_type":"province"},"geometry":{"type":"Point","coordinates":[66.22045777698395,33.706418957338684]}},{"type":"Feature","properties":{"name":"Uruzgan","name_dari":"ارزگان","id":25,"prov_id":25,"admin_type":"province"},"geometry":{"type":"Point","coordinates":[66.05885582135791,32.854418153916946]}},{"type":"Feature","properties":{"name":"Zabul","name_dari":"زابل","id":26,"prov_id":26,"admin_type":"province"},"geometry":{"type":"Point","coordinates":[67.14781921525108,32.1998930190297]}},{"type":"Feature","properties":{"name":"Kandahar","name_dari":"کندهار","id":27,"prov_id":27,"admin_type":"province"},"geometry":{"type":"Point","coordinates":[65.70961515070704,31.044937671102357]}},{"type":"Feature","properties":{"name":"Jawzjan","name_dari":"جوزجان","id":28,"prov_id":28,"admin_type":"province"},"geometry":{"type":"Point","coordinates":[65.85412294302036,36.82936841580228]}},{"type":"Feature","properties":{"name":"Faryab","name_dari":"فاریاب","id":29,"prov_id":29,"admin_type":"province"},"geometry":{"type":"Point","coordinates":[64.86935134333233,36.06014808375594]}},{"type":"Feature","properties":{"name":"Hilmand","name_dari":"هلمند","id":30,"prov_id":30,"admin_type":"province"},"geometry":{"type":"Point","coordinates":[64.04711050743322,31.154450608151986]}},{"type":"Feature","properties":{"name":"Badghis","name_dari":"بادغیس","id":31,"prov_id":31,"admin_type":"province"},"geometry":{"type":"Point","coordinates":[63.73445514296563,35.136990813014854]}},{"type":"Feature","properties":{"name":"Hirat","name_dari":"هرات","id":32,"prov_id":32,"admin_type":"province"},"geometry":{"type":"Point","coordinates":[62.13114773118701,34.19727624128249]}},{"type":"Feature","properties":{"name":"Farah","name_dari":"فراه","id":33,"prov_id":33,"admin_type":"province"},"geometry":{"type":"Point","coordinates":[62.30182050458091,32.60835567250128]}},{"type":"Feature","properties":{"name":"Nimroz","name_dari":"نیمروز","id":34,"prov_id":34,"admin_type":"province"},"geometry":{"type":"Point","coordinates":[62.31880393384634,30.802259513741085]}}]}