{
"type": "FeatureCollection",
"crs": { "type": "name", "properties": { "name": "urn:ogc:def:crs:OGC:1.3:CRS84" } },
"features": [
{ "type": "Feature", "properties": { "name": "Kabul", "name_dari": "کابل", "id": 1, "prov_id": 1, "admin_type": "province" }, "geometry": { "type": "Point", "coordinates": [ 69.334668548720842, 34.554660810513965 ] } },
{ "type": "Feature", "properties": { "name": "Kapisa", "name_dari": "کاپیسا", "id": 2, "prov_id": 2, "admin_type": "province" }, "geometry": { "type": "Point", "coordinates": [ 69.622616242532047, 34.962896465294236 ] } },
{ "type": "Feature", "properties": { "name": "Parwan", "name_dari": "پروان", "id": 3, "prov_id": 3, "admin_type": "province" }, "geometry": { "type": "Point", "coordinates": [ 68.886088883350141, 34.958280407081361 ] } },
{ "type": "Feature", "properties": { "name": "Maidan Wardak", "name_dari": "میدان وردک", "id": 4, "prov_id": 4, "admin_type": "province" }, "geometry": { "type": "Point", "coordinates": [ 68.217752579469632, 34.303250167435678 ] } },
{ "type": "Feature", "properties": { "name": "Logar", "name_dari": "لوگر", "id": 5, "prov_id": 5, "admin_type": "province" }, "geometry": { "type": "Point", "coordinates": [ 69.168480811651392, 34.013494998254124 ] } },
{ "type": "Feature", "properties": { "name": "Nangarhar", "name_dari": "ننگرهار", "id": 6, "prov_id": 6, "admin_type": "province" }, "geometry": { "type": "Point", "coordinates": [ 70.475716787076252, 34.273607408849855 ] } },
{ "type": "Feature", "properties": { "name": "Laghman", "name_dari": "لغمان", "id": 7, "prov_id": 7, "admin_type": "province" }, "geometry": { "type": "Point", "coordinates": [ 70.159683931203361, 34.764205709947774 ] } },
{ "type": "Feature", "properties": { "name": "Panjsher", "name_dari": "پنجشیر", "id": 8, "prov_id": 8, "admin_type": "province" }, "geometry": { "type": "Point", "coordinates": [ 69.794546958604869, 35.44563355198936 ] } },
{ "type": "Feature", "properties": { "name": "Baghlan", "name_dari": "بغلان", "id": 9, "prov_id": 9, "admin_type": "province" }, "geometry": { "type": "Point", "coordinates": [ 68.91420040491478, 35.804454489966353 ] } },
{ "type": "Feature", "properties": { "name": "Bamyan", "name_dari": "بامیان", "id": 10, "prov_id": 10, "admin_type": "province" }, "geometry": { "type": "Point", "coordinates": [ 67.234389628930117, 34.803790813487069 ] } },
{ "type": "Feature", "properties": { "name": "Ghazni", "name_dari": "غزنی", "id": 11, "prov_id": 11, "admin_type": "province" }, "geometry": { "type": "Point", "coordinates": [ 67.81119986360531, 33.315673789775715 ] } },
{ "type": "Feature", "properties": { "name": "Paktika", "name_dari": "پکتیکا", "id": 12, "prov_id": 12, "admin_type": "province" }, "geometry": { "type": "Point", "coordinates": [ 68.743852924878055, 32.476856348548544 ] } },
{ "type": "Feature", "properties": { "name": "Paktya", "name_dari": "پکتیا", "id": 13, "prov_id": 13, "admin_type": "province" }, "geometry": { "type": "Point", "coordinates": [ 69.38827497803949, 33.631972538304403 ] } },
{ "type": "Feature", "properties": { "name": "Khost", "name_dari": "خوست", "id": 14, "prov_id": 14, "admin_type": "province" }, "geometry": { "type": "Point", "coordinates": [ 69.833564170808643, 33.377263681872449 ] } },
{ "type": "Feature", "properties": { "name": "Kunar", "name_dari": "کنر ها", "id": 15, "prov_id": 15, "admin_type": "province" }, "geometry": { "type": "Point", "coordinates": [ 71.093992338887119, 34.96601891300589 ] } },
{ "type": "Feature", "properties": { "name": "Nuristan", "name_dari": "نورستان", "id": 16, "prov_id": 16, "admin_type": "province" }, "geometry": { "type": "Point", "coordinates": [ 70.788453485474818, 35.416888737892869 ] } },
{ "type": "Feature", "properties": { "name": "Badakhshan", "name_dari": "بدخشان", "id": 17, "prov_id": 17, "admin_type": "province" }, "geometry": { "type": "Point", "coordinates": [ 71.456212738629191, 37.037848149765018 ] } },
{ "type": "Feature", "properties": { "name": "Takhar", "name_dari": "تخار", "id": 18, "prov_id": 18, "admin_type": "province" }, "geometry": { "type": "Point", "coordinates": [ 69.778821239049449, 36.701536149950961 ] } },
{ "type": "Feature", "properties": { "name": "Kunduz", "name_dari": "کندز", "id": 19, "prov_id": 19, "admin_type": "province" }, "geometry": { "type": "Point", "coordinates": [ 68.746491704726566, 36.84323699577876 ] } },
{ "type": "Feature", "properties": { "name": "Samangan", "name_dari": "سمنگان", "id": 20, "prov_id": 20, "admin_type": "province" }, "geometry": { "type": "Point", "coordinates": [ 67.702480086191443, 35.972465551833608 ] } },
{ "type": "Feature", "properties": { "name": "Balkh", "name_dari": "بلخ", "id": 21, "prov_id": 21, "admin_type": "province" }, "geometry": { "type": "Point", "coordinates": [ 67.078406347915276, 36.669914566639392 ] } },
{ "type": "Feature", "properties": { "name": "Sar-e-Pul", "name_dari": "سرپل", "id": 22, "prov_id": 22, "admin_type": "province" }, "geometry": { "type": "Point", "coordinates": [ 66.138868548254678, 35.714497145660225 ] } },
{ "type": "Feature", "properties": { "name": "Ghor", "name_dari": "غور", "id": 23, "prov_id": 23, "admin_type": "province" }, "geometry": { "type": "Point", "coordinates": [ 64.92872607534467, 34.179400409256388 ] } },
{ "type": "Feature", "properties": { "name": "Daykundi", "name_dari": "دایکندی", "id": 24, "prov_id": 24, "admin_type": "province" }, "geometry": { "type": "Point", "coordinates": [ 66.220457776983949, 33.706418957338684 ] } },
{ "type": "Feature", "properties": { "name": "Uruzgan", "name_dari": "ارزگان", "id": 25, "prov_id": 25, "admin_type": "province" }, "geometry": { "type": "Point", "coordinates": [ 66.058855821357909, 32.854418153916946 ] } },
{ "type": "Feature", "properties": { "name": "Zabul", "name_dari": "زابل", "id": 26, "prov_id": 26, "admin_type": "province" }, "geometry": { "type": "Point", "coordinates": [ 67.147819215251076, 32.199893019029702 ] } },
{ "type": "Feature", "properties": { "name": "Kandahar", "name_dari": "کندهار", "id": 27, "prov_id": 27, "admin_type": "province" }, "geometry": { "type": "Point", "coordinates": [ 65.709615150707037, 31.044937671102357 ] } },
{ "type": "Feature", "properties": { "name": "Jawzjan", "name_dari": "جوزجان", "id": 28, "prov_id": 28, "admin_type": "province" }, "geometry": { "type": "Point", "coordinates": [ 65.854122943020357, 36.829368415802278 ] } },
{ "type": "Feature", "properties": { "name": "Faryab", "name_dari": "فاریاب", "id": 29, "prov_id": 29, "admin_type": "province" }, "geometry": { "type": "Point", "coordinates": [ 64.869351343332326, 36.060148083755941 ] } },
{ "type": "Feature", "properties": { "name": "Hilmand", "name_dari": "هلمند", "id": 30, "prov_id": 30, "admin_type": "province" }, "geometry": { "type": "Point", "coordinates": [ 64.047110507433217, 31.154450608151986 ] } },
{ "type": "Feature", "properties": { "name": "Badghis", "name_dari": "بادغیس", "id": 31, "prov_id": 31, "admin_type": "province" }, "geometry": { "type": "Point", "coordinates": [ 63.734455142965629, 35.136990813014854 ] } },
{ "type": "Feature", "properties": { "name": "Hirat", "name_dari": "هرات", "id": 32, "prov_id": 32, "admin_type": "province" }, "geometry": { "type": "Point", "coordinates": [ 62.131147731187014, 34.197276241282488 ] } },
{ "type": "Feature", "properties": { "name": "Farah", "name_dari": "فراه", "id": 33, "prov_id": 33, "admin_type": "province" }, "geometry": { "type": "Point", "coordinates": [ 62.30182050458091, 32.608355672501283 ] } },
{ "type": "Feature", "properties": { "name": "Nimroz", "name_dari": "نیمروز", "id": 34, "prov_id": 34, "admin_type": "province" }, "geometry": { "type": "Point", "coordinates": [ 62.31880393384634, 30.802259513741085 ] } }
]
}
