id,name,distId,provId,lat,lon,closed,ps_female,ps_male,ps_total
101001,Ashuqan-O-Arifan High School,101,1,34.50867443,69.18066344,0,2,3,5
1308138,Venus Khel Mosque,1308,13,33.8758094800001,69.6333802,0,0,3,3
605160,Darbang School,605,6,34.4562396270002,70.5942892450001,0,1,2,3
619243,Mama Khel High School,619,6,34.2467299400001,69.99698577,0,2,0,2
614499,Private House,614,6,34.4795246200001,70.92009011,0,2,0,2
615385,Bandar Khola Jaame Mosque,615,6,34.0697958200001,70.76374529,1,0,2,2
3214301,Qandiz Qademi Mosque ,3214,32,33.3064080500001,62.1427384500001,0,1,3,4
3203117,Kochis Location,3203,32,34.06038433,62.3762902600001,0,1,1,2
2106177,Shamsullah Private House,2106,21,36.9106549360001,66.8483468630001,0,1,1,2
206095,Shaheed Hafizullah Secondary School,206,2,34.8870519400001,69.68533361,0,0,3,3
310131,District Building ,310,3,34.9465631600001,68.5413121510001,0,1,1,2
3212376,Posht-E- Paji Mosque,3212,32,34.27624227,63.2414726200001,0,1,1,2
3212377,Sarwan School ,3212,32,34.2890784900001,63.0578306700001,0,2,3,5
307090,Du Aab Mosque,307,3,35.0053074100001,68.86111751,0,1,2,3
2301039,Jandak School,2301,23,34.99556325,65.70398113,0,2,3,5
704076,Parwayee School,704,7,34.86126123,70.36992997,0,1,1,2
704080,Mango School And Tent,704,7,34.8866182900001,70.3794519700001,0,1,1,2
704081,Kotaly Islamic Madrassa,704,7,34.9232741800001,70.3919603200001,0,1,1,2
1506063,Primary School,1506,15,34.9498063500001,71.22808631,0,2,3,5
1506064,District Compound,1506,15,34.96645553,71.27483787,0,2,3,5
1512054,Byadad Primary School,1512,15,35.0156009800001,71.39875741,0,2,2,4
2305113,Takhta Tarma Bazar Tent,2305,23,33.7876423800001,64.8916015,0,1,2,3
2305134,Surkhak Village Mosque,2305,23,33.6059789600001,65.2299954800001,1,1,1,2
2309178,Tolak School,2309,23,33.9718644400001,63.71988353,0,1,2,3
2309186,Tagab Ashlan Secondary School,2309,23,34.12008072,63.6318589600001,0,1,3,4
2309192,Arbab Mir Gul Private House,2309,23,34.15350051,63.5195672500001,0,1,1,2
2309193,Sang Khalq Primary School,2309,23,33.94593145,63.79730451,0,1,2,3
3007196,Asad Suri High School,3007,30,32.404516,64.4708569100001,0,1,6,7
3009184,Noor Mohammad Private House,3009,30,32.23240214,64.6983095,0,2,3,5
3009185,Khan Mohammad Mosque,3009,30,32.26020614,64.7452245400001,0,2,3,5
3105153,Akazi School,3105,31,35.6137384700001,63.3107353200001,0,1,1,2
3105158,Joy-E- Kar School,3105,31,35.52160345,63.37038205,0,1,2,3
3105168,Mahalla-E- Paheen  School,3105,31,35.3253650400001,63.6413523900001,0,2,3,5
3105188,Sarkhlang Joy-E-Ganj Mosque,3105,31,35.6121543500001,63.32484536,0,1,1,2
3303055,Kariz Sadiq Mosque ,3303,33,32.90659178,61.90357121,0,1,1,2
3303239,Ghorchi Mosque ,3303,33,32.60276273,62.09337379,0,1,1,2
3304072,Hassan Abad Ulya Mosque ,3304,33,32.2993253600001,61.29710971,0,1,1,2
3306149,Todanak Village Tent (Kuchi),3306,33,32.76432537,62.5784622400001,0,1,1,2
3310177,Mughol Abad Mosque ,3310,33,32.55547772,63.2338586800001,0,1,1,2
205039,Qazi Abdul Jamil  School ,205,2,34.95213325,69.59841878,0,2,1,3
206078,Ghazi Usman High School,206,2,34.85358832,69.6453694300001,0,0,3,3
308143,Mula Ahmad Khel School,308,3,34.85720486,69.3929361000001,0,1,1,2
308144,Dandar School,308,3,34.7948341900001,69.4639738100001,0,1,1,2
703093,Kotwal Khando Village Mosque,703,7,34.77972019,70.11452913,0,1,2,3
1513082,Morchal Village Primary School,1513,15,34.9973961100001,70.7366576,0,1,3,4
1514083,Bar Noor Gul Boys High School,1514,15,34.6140800600001,70.7620080800001,0,2,1,3
1702054,Gazan Mosque,1702,17,36.9862397700001,70.63250517,0,1,2,3
1702055,Bagh Mubarak School,1702,17,37.05528508,70.6547012300001,0,1,2,3
2308232,Seb Talkh School,2308,23,33.5924181500001,64.22200661,0,1,1,2
3104086,Qoole Zardak,3104,31,34.7617870900001,63.5289074300001,0,1,1,2
3310172,Qala Kohna Boys Primary School,3310,33,32.61456274,63.6732466,0,1,1,2
3406057,Dangar Abad ,3405,34,32.1934924000001,63.5580162300001,0,1,1,2
306064,Takhma Mosque,306,3,35.1753623310001,69.2223161540001,0,1,2,3
3104080,Nawa Mullah Gadah Mosque,3104,31,34.7153144150001,63.863211312,0,1,1,2
309142,Ziarat-E-Shah Daleer Lolenj ,309,3,34.9163567540001,68.6460671160001,0,1,1,2
101013,Takya Khana-E-Umomi,101,1,34.5108701,69.1751191100001,0,2,3,5
101244,No.16Th Secondary School,101,1,34.5695,69.13307222,0,3,4,7
102417,Orya Khel Secondary School,102,1,34.5427799100001,68.964355,0,1,1,2
102418,Saha-E-Kuchiha,102,1,34.48005115,68.94906596,0,1,2,3
103422,Malik Khani House,103,1,34.3522922200001,69.1171451000001,0,1,1,2
103423,Chahar Asyab Boys High School,103,1,34.41689761,69.1451815300001,0,1,2,3
104459,Shaheed Mohammad Arif Zarif Secondary School,104,1,34.4701052120001,69.2006840620001,0,2,2,4
104460,Kariz Bakr Primary School,104,1,34.4675,69.31333333,0,1,2,3
105472,Deh Sabz-E-Khas Girls High School,105,1,34.646100641,69.3945421760001,0,1,1,2
105474,Haji Ahmad Shah Mosque,105,1,34.6083699500002,69.2623854700001,0,2,2,4
106394,Dara-E-Shakar Dara High School,106,1,34.6854503900001,69.03443985,0,3,4,7
106395,Qala-E-Murad Big High School,106,1,34.66741061,69.07541514,0,3,3,6
114366,Abdul Rahman Ba Ba Secondary School,114,1,34.8658886500001,69.18468964,0,2,2,4
114367,Abdul Wakil Shaheed High School,114,1,34.8439567400001,69.15720909,0,2,3,5
115479,Yar Del Orya Khel Mosque,115,1,34.56868747,69.7199007500001,0,1,2,3
115480,Tezen-E-Khas Primary School,115,1,34.3648415700001,69.57981103,0,1,2,3
115517,Guga Manda School,115,1,34.5777662900001,69.5957826100001,0,1,1,2
115518,Sperkundi School,115,1,34.66239124,69.83624382,0,1,1,2
603084,Bakhtaan Clinic,603,6,34.43259103,70.40295759,0,2,0,2
603085,Fateh Abad Clinic,603,6,34.3565734100001,70.2230946500001,0,0,3,3
1007150,Takhta Ha Mosque,1007,10,34.0810675700001,66.9258533500001,0,1,1,2
1007151,Waaz Darghan Mosque,1007,10,34.0316732100001,66.9716103900001,0,1,1,2
1007159,Toop-E-Ismael Mosque,1007,10,34.1179056500001,66.9681941800001,0,1,2,3
1205081,Big Mosque,1205,12,32.9709349,69.0737705700001,0,0,2,2
1205082,Mohammad Hayat Guest House,1205,12,32.9713882300001,69.07476653,0,2,0,2
1208126,Mawlavi Serajuddin Madressa,1208,12,32.1846380500001,69.00664213,0,1,3,4
1208127,Shekin Bazaar Mosque,1208,12,32.44728365,68.8517283700001,0,0,2,2
1308207,Moti School,1308,13,33.885779689,69.6776687600001,0,1,1,2
1309170,Kotkai Mosque,1309,13,33.6666621700001,69.7848217000001,0,0,2,2
1401003,Omer Village Dermand,1401,14,33.3261499500001,69.9427947,0,1,3,4
1401004,Mohammad Vally Shah Hojra,1401,14,33.3276505000001,69.94409176,0,1,1,2
1902115,Salarzai Mosque,1902,19,36.632766822,68.8499796840001,0,1,2,3
1905093,Nomania Secondary School,1905,19,37.1945654800001,68.89822911,0,1,3,4
1905094,Ortablaqi School,1905,19,37.1554961900001,68.9059141100001,0,1,2,3
2005072,Aabkhorak Madrassa,2005,20,35.5039732500001,67.76274366,0,1,3,4
2005073,Do Aab Madrassa,2005,20,35.5649199800001,67.81933833,0,1,2,3
2804069,Chaar Changhoo High School,2804,28,37.00583957,66.0840622700001,0,2,2,4
2804070,Mangjeek School,2804,28,37.01402769,66.1370851500001,0,2,2,4
2806086,Qarnas School,2806,28,37.5317154700001,65.71695304,0,1,2,3
2806087,Chopli Tapa,2806,28,37.49518735,65.80223849,0,1,1,2
2907110,Zori Ha Primary School,2907,29,35.72003963,64.15662982,0,1,2,3
2909158,Qozi Bay Qala Girls High School,2909,29,36.4199761400001,64.8847303900001,0,2,2,4
2909159,Jar Qala School,2909,29,36.36500584,64.90297028,0,2,2,4
3202078,Shohada Secondary School ,3202,32,34.27960544,62.39698059,0,0,2,2
3206128,Shah Abad School ,3206,32,34.2248117400001,62.62732016,0,2,3,5
3206129,Gul Meer High School ,3206,32,34.2180142000001,62.59203992,0,1,2,3
3207180,Khwaja Sabz Posh School,3207,32,34.9766172600001,62.0191119,1,1,2,3
3309097,Daraq Secondary School,3309,33,31.62775303,61.50522186,0,2,2,4
3309098,Deh Shaikh Mosque,3309,33,31.5004635400001,61.50595113,0,1,1,2
309140,Qatandar School ,309,3,34.7273239200001,68.7410035,0,1,1,2
1728212,Sarhad Pamir_Patokh High School,1728,17,37.0098997200001,73.40719502,0,1,1,2
101038,Sayed Jamalluddin Teacher Training School,101,1,34.51087045,69.1320396300001,0,2,3,5
101039,Amir Dust Mohammad Khan School,101,1,34.51050182,69.1577510400001,0,2,3,5
101093,Mohammad Qayam Khan Primary School,101,1,34.5145224300001,69.1075899800001,0,1,2,3
101430,Noman Ibne Sabit Mosque,101,1,34.49134022,69.19258758,0,5,4,9
101491,Abu Baker Sediq Mosque,101,1,34.50083333,69.215,0,1,2,3
108337,Mir Hameedullah School,108,1,34.71223166,69.10733235,0,2,2,4
108338,Pul-E-Sofian School,108,1,34.6979907670001,69.093598807,0,1,2,3
602050,Shahid Agha Mosque,602,6,34.4547777200001,70.5058421100001,0,0,4,4
602051,Malakh Village School,602,6,34.4705520200002,70.5091644800001,0,3,0,3
616426,Hospital Mosque,616,6,34.21979367,70.8154911600001,0,3,0,3
616428,Daaga School,616,6,34.1922626490001,70.8112666440001,0,2,3,5
617472,Gardee Ghows High  School,617,6,34.23503825,70.9688076900001,0,2,2,4
617474,Aimal Khan High School,617,6,34.24384156,70.88198936,0,4,2,6
1201009,Aljahad Primary School,1201,12,33.19355742,68.81752065,0,0,3,3
1201010,Primary School,1201,12,33.1898591500001,68.82264376,0,2,0,2
1207096,Ibrahim Guest House,1207,12,32.8123109500001,68.4696935100001,0,2,0,2
1207098,Mohammad Dost Mosque,1207,12,32.83058872,68.4886145500001,0,2,2,4
1212189,Khaima Mosque,1212,12,33.1583386300001,69.31137204,0,0,3,3
1301006,Ibrahim Khel School,1301,13,33.5577007800001,69.1695911700001,0,3,4,7
1301007,Robaat Boys School,1301,13,33.63602654,69.1643234600001,0,0,2,2
1306031,Karez Mosque,1306,13,33.7541670900002,69.4520447300001,0,0,2,2
1306032,Karez School,1306,13,33.75343072,69.45010404,0,2,0,2
1310157,District Central Hospital ,1310,13,33.8042207500001,69.8147040700001,0,4,0,4
1310159,Sultan House,1310,13,33.7968913500001,69.7420219100001,0,4,0,4
1310160,Eid Gul Mosque,1310,13,33.71254472,69.7623237700001,0,0,4,4
1401047,Rasool House,1401,14,33.31388832,69.95692123,0,1,2,3
1401161,Dere Madrassa,1401,14,33.3502290900001,70.02169062,0,1,2,3
1402085,Tora Wari High School Degan,1402,14,33.2995106400001,69.86801995,0,1,1,2
1402086,Sayda Jan Mosque,1402,14,33.3230709800001,69.8617206000001,0,1,1,2
1801017,Bolak Orta Baz Primary School,1801,18,36.74563482,69.5562466000001,0,1,2,3
1806083,District Office,1806,18,36.59439838,69.6410895600001,0,2,3,5
2106159,Elqechee School,2106,21,36.8922792600001,66.7767767700001,0,1,2,3
3202038,Abul Waleed Mosque,3202,32,34.3600710600001,62.1479616600001,0,2,2,4
3202039,Gow Butan High School ,3202,32,34.3441705470001,62.135461035,0,1,2,3
3204158,Islam Abad School ,3204,32,34.3768021570001,62.4448446850001,0,1,1,2
3204159,Pahlawan Peri Scondary School ,3204,32,34.3581073200001,62.39578671,0,1,1,2
3204163,Korpa School,3204,32,34.54668731,62.3171772,0,2,1,3
3204164,Kochis Location ,3204,32,34.57343081,63.0914111,0,1,2,3
3214336,Chahar Qala-E-Dowom Clinic ,3214,32,33.2060007,62.1931337000001,0,1,1,2
3301247,Sang Zor Mosque,3301,33,32.3545020630001,62.0864838430001,0,1,2,3
3304248,Angiran School,3304,33,32.43890723,61.3907374460001,0,1,2,3
1001168,Karte Solh High School,1001,10,34.8337473170001,67.781931516,0,1,2,3
1001169,Mosque,1001,10,34.8786028280001,67.5152384500001,0,1,2,3
2407191,Mosque,2407,24,33.9077212900001,67.121170598,0,1,2,3
2407192,Mosque,2407,24,33.8322656720001,67.245977242,0,1,2,3
2402172,Mosque,2402,24,33.539880313,66.6667225990001,0,1,2,3
902260,Nawamad Mosque,902,9,35.751902467,68.498323224,0,1,2,3
903261,Abo Hanifa Madrasa,903,9,35.5983017800001,68.730003688,0,1,2,3
104539,Qala Hasan Khan Mosque,104,1,34.4661011320001,69.248404801,0,1,2,3
104540,Mehtarlam Baba Mosque,104,1,34.492235239,69.31229847,0,1,2,3
704131,School,704,7,34.9068623530001,70.3770636660001,0,1,2,3
704132,Mosque,704,7,34.75865579,70.2973460970001,0,1,2,3
905275,Mulah Khal Muhammad Mosque,905,9,36.290958017,68.7356316980001,0,1,2,3
1402177,Mosque,1402,14,33.316118869,69.864384958,0,1,2,3
1712305,Wakil Abdul Jabar School,1712,17,37.0579333550001,71.1752473170001,0,1,2,3
2204141,Mosque,2204,22,36.043066468,66.236171748,0,1,2,3
2602052,Haji Abdul Aziz Pump Station,2602,26,31.8322213300001,66.3741679560001,0,1,2,3
2908212,Qala Tardi Female Primary School,2908,29,35.7234816070001,65.2609034050001,0,1,2,3
101520,Hzor Hazrat Nabi Mosque,101,1,34.5090996100001,69.2423275550001,0,1,2,3
101528,Muhammad Hanifa Ghazi Mosque,101,1,34.577129423,69.169276122,0,1,2,3
305154,Abdul Hadi Shaheed Secondary School,305,3,35.142909838,69.2854461490001,0,1,2,3
605512,Clinic,605,6,34.4143830970001,70.564862527,0,1,2,3
605513,Molawi Ebarahim Kamawi School,605,6,34.441254681,70.628792683,0,1,2,3
807108,Chawni School,807,8,35.640124196,69.8803022320001,0,1,2,3
802099,Chamal Warda Mosque,802,8,35.30317036,69.4244688270001,0,1,2,3
904265,Khwaja Gul Khar School,904,9,36.089925676,69.003424525,0,1,2,3
1005178,Kaligan Femal High School,1005,10,34.932332993,66.461486995,0,1,2,3
3202062,Sar Asiab Scondary School ,3202,32,34.2712524100001,62.363835,0,2,0,2
1804059,Dahana Bangi School,1804,18,36.71706323,69.25501896,0,2,4,6
1804060,Mawlawi Ezzatullah Shaheed High School,1804,18,36.52873468,69.36576055,0,2,3,5
1810119,Koktaba High School,1810,18,36.9165261,69.7208900600001,0,1,2,3
1810120,Ganda Secondary School,1810,18,37.1689737500001,69.80510956,0,2,2,4
2002022,Dawlat Abad Secondary School,2002,20,36.52187461,67.8292491600001,0,1,1,2
2002023,District Office,2002,20,36.4550794400001,67.8962214200001,0,1,2,3
404083,Saleh Mohammad House,404,4,34.1326621800001,68.6617637100001,0,1,1,2
3211456,Sar Asia Mosque ,3211,32,34.3447002,61.4787101300001,0,2,1,3
3212365,Markaz-E-Oba High School ,3212,32,34.3698498900001,63.1758597400001,0,2,3,5
1007186,Dara Ghol Sia Mosque,1007,10,34.13035484,67.0671756070001,0,1,2,3
1702287,Qala Zafar Mosque,1702,17,37.0083106340001,70.1072349130001,0,1,2,3
1413185,Sari Pili School,1413,14,33.584588859,70.0865715,0,1,2,3
1707295,Chapa Village Mosque,1707,17,36.9692617500001,70.3399291960001,0,1,2,3
1810209,Mosque,1810,18,37.046219474,70.1243170600001,0,1,2,3
1718313,Ogh Female Secondary School,1718,17,36.5661118010001,70.948278249,0,1,2,3
1907219,Secondary School,1907,19,36.96337173,68.579586645,0,1,2,3
2405182,Mosque,2405,24,33.9399442080001,65.7162024450001,0,1,2,3
2606071,Bagh Naso Mosque,2606,26,32.698926365,67.30400108,1,1,2,3
2605061,Moque,2605,26,32.517356567,66.9633115370001,1,1,2,3
2610080,House,2610,26,31.7372903000001,67.6097660400001,1,1,2,3
2610081,House,2610,26,32.0164067350001,67.74303652,1,1,2,3
3106198,Kaftar Khan Mosque,3106,31,34.8362794,63.8741359580001,0,1,2,3
3008226,New School,3008,30,32.0718700080001,64.837401346,0,1,3,4
3201474,Sayed Qanad Secondary School,3201,32,34.3647264590001,62.1610993110001,0,1,2,3
3201475,Mawlana Jame,3201,32,34.3733894820001,62.1802287100001,0,1,2,3
101532,Abdul Wahab Mosque,101,1,34.5272821350001,69.409831603,0,1,2,3
101534,Shahrak Tlaie High School,101,1,34.6071282820001,69.081970476,0,1,2,3
106543,Mosque,106,1,34.6980502000001,69.065739805,0,1,2,3
110544,Moqawmat Secondary School,110,1,34.796639446,69.1641185770001,0,1,2,3
101523,Yaqob Mosque,101,1,34.5718198680001,69.1107675490001,0,1,2,3
101524,Ghulam Sedeq High School,101,1,34.517598796,69.334773429,0,1,2,3
101525,Sedeq Ullah Risghteen High School,101,1,34.5058535100001,69.335241564,0,1,2,3
114548,Jar Chi Secondary School,114,1,34.8789482390001,69.199825777,0,1,2,3
114549,Qala Haji Secondary School,114,1,34.830226025,69.1490162200001,0,1,2,3
115550,Rod Bar School,115,1,34.7311878490001,69.844140517,0,1,2,3
3207479,School,3207,32,34.775884096,62.3322588710001,0,1,2,3
3209480,Dara Bast Mosque,3209,32,33.5624363110001,62.747193388,1,1,2,3
3309252,Sabz Gazi School,3309,33,31.9485999280001,61.67071436,0,1,2,3
613517,School,613,6,34.089318682,70.5240611030001,0,1,2,3
505083,Aqeb Bazar Mosque,505,5,34.1591587640001,69.070626877,0,1,2,3
601508,Shahrak Saiaf Mosque,601,6,34.3903898300001,70.412766381,0,1,2,3
705136,Mosque,705,7,35.002723575,70.078401868,1,1,2,3
804102,Khatam Alanbia School,804,8,35.40950574,69.697688548,0,1,2,3
804103,Muhammad Pana Shaheed School,804,8,35.4685760380001,69.7622650530001,0,1,2,3
905269,Primary School,905,9,36.1582743330001,68.8352667330001,0,1,2,3
1003172,Samuch Ha Mosque,1003,10,35.196563586,67.616923909,0,1,2,3
1003173,Kado Khana Mosque,1003,10,35.1209960740001,67.477593806,0,1,2,3
1005174,Pai Wcha Mosque,1005,10,35.0959268720001,66.6943984390001,0,1,2,3
1006181,Dahan Kohdar Madrasa,1006,10,34.370082016,66.7721213980001,0,1,2,3
1006182,Do Abi Secondary School,1006,10,34.429049929,67.1318062220001,0,1,2,3
1308219,Transport Station,1308,13,33.8364508920001,69.639397735,0,1,2,3
1510122,Mosque,1510,15,34.6137503100002,70.815566263,0,1,2,3
1512123,Mosque,1512,15,35.0394226300001,71.4107339990001,1,1,2,3
1701283,Laiaba Femal High School,1701,17,37.1737633970001,70.5241571490001,0,1,2,3
1702290,Dehdhi Femal School,1702,17,36.999119419,70.458967962,0,1,2,3
1704291,Bid Kalan High School,1704,17,37.3447686120001,70.311260469,0,1,2,3
1709299,Madrasa,1709,17,37.575958799,70.418248562,0,1,2,3
1710300,Kharandab Female School,1710,17,36.8397879790001,70.8431570530001,0,1,2,3
1713308,Ghazanfar Paien Mosque,1713,17,37.4193362280001,70.253924678,0,1,2,3
1715309,Wahdat Abad Madrasa,1715,17,36.882426342,70.211612177,0,1,2,3
1726316,Lahjor Sho School,1726,17,36.1726891290001,70.780727362,0,1,2,3
2005100,Sorkh Qala Female School,2005,20,35.523909685,67.966526376,0,1,2,3
2006101,School,2006,20,35.910533051,67.339154017,0,1,2,3
2404176,Mosque,2404,24,33.974521469,66.3051329470001,0,1,2,3
2404177,Mosque,2404,24,33.8969628610001,66.2048766480001,0,1,2,3
2406186,Mosque,2406,24,33.4255817300001,65.868928745,0,1,2,3
2406187,Madrasa,2406,24,33.561571513,65.6947888470001,0,1,2,3
2601046,Kagari Mosque,2601,26,32.171947776,66.870527954,0,1,2,3
2601047,Lwar Kariz Mosque,2601,26,32.1530038970001,66.985556188,0,1,2,3
2603056,Moque,2603,26,31.9555736340001,67.004875625,0,1,2,3
2604057,Moque,2604,26,32.251242376,66.53837532,1,1,2,3
2605065,Moque,2605,26,32.4067443620001,66.715777276,1,1,2,3
2605066,Moque,2605,26,32.5236477550001,67.152765548,1,1,2,3
2609075,Mosque,2609,26,32.008499078,67.464563694,1,1,2,3
2609076,House,2609,26,32.2016682530001,67.7080995760001,1,1,2,3
2805125,Mosque,2805,28,36.0437494790001,65.368902197,0,1,2,3
3102192,Sang Lawh Mosque,3102,31,34.708394648,62.875309156,0,1,2,3
1404180,Haji Pir Padsh Village Mosque,1404,14,33.2648259910001,69.820944264,0,1,2,3
1404181,Haji Nik Muhammad Village School,1404,14,33.2541045470001,69.786591024,0,1,2,3
3106201,Takhlanga Mosque,3106,31,34.917922464,64.336964134,0,1,2,3
3201471,Jebariel Mosque,3201,32,34.373829924,62.144621353,0,1,2,3
115551,Tahzin Am Jarobe High School,115,1,34.3575717650001,69.619369598,0,1,2,3
115552,Waka Khas School,115,1,34.6376608350001,69.75989099,0,1,2,3
911279,Klola Sang Mosque,911,9,35.3902549810001,68.3981603780001,0,1,2,3
1812212,Ai Khanum High School,1812,18,37.1687358860001,69.43175411,0,1,2,3
1813213,Secondary School,1813,18,36.20651738,69.87946229,0,1,2,3
2301239,Shakh Malan Mosque,2301,23,34.5666749240001,64.7031972140001,0,1,2,3
2305240,Naga School,2305,23,33.522542349,63.796220288,0,1,2,3
2910215,Mosque,2910,29,35.3054761060001,65.241033911,0,1,2,3
2911216,Qepchaq Secondary School,2911,29,36.7911778190001,64.9777747200001,0,1,2,3
3403061,Sarkanak School,3403,34,31.2425133840001,62.0398471440001,0,1,2,3
3210414,Muhammad Abad Cheshma Khafi Mosque(Male),3210,32,34.8818340300001,62.6494349700001,0,0,2,2
101535,Hamza Mosque,101,1,34.5344109340001,69.397763303,0,1,2,3
111545,Qul Afghan Primary School,111,1,34.7302875510001,69.04473323,0,1,2,3
112546,Qala Muqareb Mosque,112,1,34.776825995,69.067483461,0,1,2,3
114547,Alas Ghan High School,114,1,34.8239292130001,69.250474309,0,1,2,3
807066,Balaye Kucha Mosque ,807,8,35.6960058000001,70.095854,0,0,2,2
616520,Marko High School,616,6,34.2499827730001,70.8085719470001,0,1,2,3
622521,Anjeer Village Secondary School,622,6,34.100566734,70.9330993670001,0,1,2,3
702130,Gul Ghondi School,702,7,34.4893075460001,70.3677934820001,0,1,2,3
806104,Estofalo Mosque,806,8,35.247201089,69.3081471510001,0,1,2,3
806105,Sang Lakhshan Mosque,806,8,35.227219096,69.292513774,0,1,2,3
905272,Mualah Khil Mosque,905,9,36.208890356,68.7484949540001,0,1,2,3
1005175,Dara Chasht Sokhtagi Femal High School,1005,10,34.8624225730001,66.6925196060001,0,1,2,3
1006183,Qala Ashor Secondary School,1006,10,34.4471761580001,66.989621356,0,1,2,3
601013,Najmul Jihad High School,601,6,34.3638555760001,70.43,0,2,2,4
601040,Angoor Bagh Jame Mosque,601,6,34.4154800320002,70.4578681730001,0,2,2,4
601044,Mia Umar School,601,6,34.4198768870001,70.4522930840001,0,6,0,6
1312222,Lalak Kahol Madrasa ,1311,13,33.7346882660001,69.6292673550001,0,1,2,3
1312223,Dodai Mosque,1311,13,33.804050103,69.6741580250001,0,1,2,3
1401176,Hasan Kot School,1401,14,33.320307402,70.03892225,0,1,2,3
606188,Zargaran Village Mosque,606,6,34.5693998300001,70.580940409,0,1,2,3
610324,Jawdara Malak Sher Mohammad Hujra,610,6,34.0880583200001,70.4800498600001,1,1,0,1
1803204,Qazi Enayaht Ullah High School,1803,18,36.780387924,69.4381017160001,0,1,2,3
1806205,Primary School,1806,18,36.5734507830001,69.621020065,0,1,2,3
1807206,Emam Abo Hanifa Secondary School,1807,18,36.862899293,69.9046746770001,0,1,2,3
1807207,Primary School,1807,18,36.9170483180001,69.9734892280001,0,1,2,3
1808208,Secondary School,1808,18,36.630773852,69.7499265670001,0,1,2,3
2203137,Haji Zaher Mosque,2203,22,35.7844703760001,65.8869025800001,0,1,2,3
2203138,Mosque,2203,22,35.4789986020001,65.836398912,0,1,2,3
2601048,Barak Zai Check Post,2601,26,32.269475497,67.143080318,0,1,2,3
2601049,Naw Khiz Mosque,2601,26,32.091297753,66.799170743,0,1,2,3
2901209,Dawlat Keptan Secondary School,2901,29,35.914897305,64.789000724,0,1,2,3
3106195,Open Field,3106,31,35.136136187,64.5140580570001,0,1,2,3
3106196,Gosala Danak Mosque,3106,31,35.0554567530001,64.3859740440001,0,1,2,3
3106197,Gul Zirai Paien Mosque,3106,31,34.8593088390001,64.1169348500001,0,1,2,3
3202476,Chongar High School,3202,32,34.303141153,62.268337102,0,1,2,3
3205477,Cultural Asosiation,3205,32,34.200256061,61.7823667230001,0,1,2,3
3205478,Qala Yadgar School,3205,32,34.3525896850001,61.9536411180001,0,1,2,3
3209481,Kal Yak Paia Promary School,3209,32,33.700584273,62.279589632,0,1,2,3
3203084,Khatamul Anbeya Madrassa,3203,32,34.2619261800001,62.2286708300001,0,1,2,3
3203085,Khwaja Shahab High School,3203,32,34.2423737200001,62.2503928000001,0,1,1,2
3201018,Kabeer Buraman Mosque,3201,32,34.3471175700001,62.17829069,0,4,4,8
3201019,Paeen Aab School,3201,32,34.3318888000001,62.17270754,0,3,3,6
101526,Aqsa Mosque,101,1,34.579743637,69.1570640370001,0,1,2,3
101527,Al Muhammad Mosque,101,1,34.5695728380001,69.1711132960001,0,1,2,3
101529,Prozha Khurasan Mosque,101,1,34.572254345,69.160067815,0,1,2,3
101530,Khoja Bughra Mosque,101,1,34.5817939680001,69.1636212000001,0,1,2,3
101531,Sedeq Akbar High School,101,1,34.606757086,69.0682851490001,0,1,2,3
611302,Lowara Mena Mosque,611,6,34.066913846,70.397260117,1,1,1,2
105533,Haji Abdullah Khan Mosque,105,1,34.56682518,69.390961368,0,1,2,3
105541,Qais Wa Lang Mosque,105,1,34.603846217,69.372638397,0,1,2,3
106542,Shahrak Alghawi Mosque,106,1,34.6176929250001,69.1692788,0,1,2,3
605511,School,605,6,34.403086896,70.622426047,0,1,2,3
602509,Primary School,602,6,34.387488467,70.6639169250001,0,1,2,3
603510,Saido Khil School,603,6,34.424059719,70.3233744390001,0,1,2,3
605514,Mosque,605,6,34.4311190830001,70.6502281100001,0,1,2,3
606515,Gambiri School,606,6,34.5637407340001,70.5300096430001,0,1,2,3
608516,High School,608,6,34.347362086,70.1898733030001,0,1,2,3
801097,Koh Manjahoor Secondary School,801,8,35.3097522400001,69.5468158970001,0,1,2,3
801098,Marshal Faheem Mosque,801,8,35.2777391420001,69.4795685900001,0,1,2,3
903262,Sang Sorakh Secondary School,903,9,35.7589105420001,68.7691969190001,0,1,2,3
903263,Nasri Secondary School,903,9,35.8370266630001,68.8050768240001,0,1,2,3
903264,School,903,9,35.5981269990001,68.6478833960001,0,1,2,3
1701284,Al Jahad High School,1701,17,37.105604606,70.536641035,0,1,2,3
1704292,Warig High School,1704,17,37.2985492450001,70.4557905030001,0,1,2,3
1704293,Pahn Dara Secondary School,1704,17,37.364836385,70.4268392770001,0,1,2,3
1707294,Targani Payan Madrasa,1707,17,36.8643298930001,70.4372775030001,0,1,2,3
1404182,Shahr Kli Mosque,1404,14,33.288715133,69.867197476,0,1,2,3
1715310,Hazrat Sarwar Kainat Mosque,1715,17,36.709025324,70.141046216,0,1,2,3
1815214,Darwaza Female School,1815,18,37.408874757,69.508848726,0,1,2,3
1816215,Mosque,1816,18,37.31883716,69.9694896540001,0,1,2,3
1903218,Secondary School,1903,19,36.482876602,68.919768789,0,1,2,3
2003097,Khwaja Quch Qar Secondary School,2003,20,36.043779348,68.283933007,0,1,2,3
2404178,Mosque,2404,24,34.021777824,66.428897479,0,1,2,3
2404179,Mosque,2404,24,34.010662306,66.2510978000001,0,1,2,3
2401169,Mosque,2401,24,33.8493512490001,66.0618134000001,0,1,2,3
2401170,Mosque,2401,24,33.7479134070001,66.0805752100001,0,1,2,3
2402171,Mosque,2402,24,33.9419329680002,66.4362917280001,0,1,2,3
2407188,Mosque,2407,24,33.861865892,66.598194447,0,1,2,3
2407189,Mosque,2407,24,33.753182915,66.9987184730001,0,1,2,3
2407190,School,2407,24,33.777415031,67.0507762510001,0,1,2,3
2408193,Mosque,2408,24,34.2418228190001,66.2577096900001,0,1,2,3
2409194,Mosque,2409,24,33.205517812,65.699426245,0,1,2,3
2601045,Chel Dokhtaran School,2601,26,32.1010233090001,66.891517137,0,1,2,3
2606067,Sorkhakan Madrasa,2606,26,32.2147269020001,67.308924797,1,1,2,3
2606068,Khaka School,2606,26,32.376187325,67.385362208,1,1,2,3
2604058,Moque,2604,26,32.237208664,66.503352121,1,1,2,3
2604059,Takhom School,2604,26,32.143165995,66.5281280350001,1,1,2,3
2605060,Moque,2605,26,32.451181912,66.9827504570001,1,1,2,3
2609077,Sahak Mosque,2609,26,32.1586616780001,67.5283116090001,1,1,2,3
2610078,Mosque,2610,26,32.0699089370001,67.7696419100001,1,1,2,3
2610079,Mosque,2610,26,32.0348029550001,67.6393904340001,1,1,2,3
2802123,Haji Saleh House,2802,28,36.7910162230001,65.6099500430001,0,1,2,3
2805124,School,2805,28,36.0697367340001,65.290339377,0,1,2,3
3002223,Cha Anjeer,3002,30,31.6739912650001,64.306228446,0,1,2,3
3002224,Dorahi,3002,30,31.573349103,64.2665090080001,0,1,2,3
3006225,School,3006,30,30.155836467,64.2395492640001,0,1,2,3
3011227,Mosque,3011,30,30.5605010370001,63.9468437450001,0,1,2,3
3102190,Safidlak School,3102,31,34.8136052570001,62.825735711,0,1,2,3
3102191,Chalanak School,3102,31,34.74858958,62.9087947640001,0,1,2,3
615383,Garoko Ziarat Madrassa,615,6,34.2414858280001,71.0432037010001,0,2,0,2
622413,Ziarat Village Mosque,622,6,34.03917388,70.92893688,0,1,2,3
622414,Soor Kandaw Daag,622,6,34.05517209,70.8973925400001,0,1,2,3
622416,Shagay Dera,622,6,34.0521239300001,70.9175513400001,0,1,2,3
622417,Sosobi School,622,6,34.06823,71.025798,0,1,2,3
3304249,Guest Mosque,3304,33,32.287586839,61.4683476420001,0,1,2,3
3305250,Chaka Primary School,3305,33,32.1475981880001,61.6570478430001,0,1,2,3
3305251,Farib Primary School,3305,33,32.132917547,61.4838508180001,0,1,2,3
1412158,Amir Gulistan Mosque,1412,14,33.3133852000001,69.54369225,0,1,1,2
3107141,Sharshar Village ,3107,31,35.5709814700001,63.7684728500001,1,1,1,2
3208220,Zeeragee Kalan School,3208,32,34.89393911,61.75611832,0,1,2,3
3208221,Shakar Aab Mosque,3208,32,34.80795039,61.8546362000001,0,1,2,3
616421,Hazrat Bilal Mosque,616,6,34.23009309,70.7825951100001,0,3,0,3
616422,Hayat Khan Mosque,616,6,34.22042249,70.8294856,0,3,0,3
2206135,Qarya Aabkhor Secondary School,2206,22,35.8627439200001,66.5678271900001,0,1,1,2
306065,Awlang School,306,3,35.28440863,69.0984680400001,0,1,1,2
1214306,Adam Khan Village Primary School,1214,12,32.8065752800001,69.28771969,0,0,3,3
1215267,Kamal Village Mosque,1215,12,33.00659399,69.3492055900001,0,0,3,3
3202069,Kashak Bad-E- Saba Mosque ,3202,32,34.3697837900001,61.9658321100001,0,1,2,3
3202070,Ab Jalil Mosque And School,3202,32,34.35975468,62.03522137,0,1,2,3
3208217,Maishmast School,3208,32,34.90709158,61.7225866600001,0,1,2,3
3208218,Chah Takhta Mosque,3208,32,35.3687255900001,61.9717540700001,1,1,1,2
601043,Agriculture School,601,6,34.4231084740001,70.472200236,0,0,4,4
1904166,Ibrahim Khel School,1904,19,36.78528391,69.02256893,0,1,1,2
704055,Kandi Mosque,704,7,34.7839165600001,70.31981619,0,1,1,2
101058,Naderia High School,101,1,34.53454481,69.14022635,0,3,4,7
101061,Number One Kindergarten ,101,1,34.5605912400001,69.15716011,0,2,2,4
101062,Malika Soraia Girls High School,101,1,34.5596375400001,69.15769124,0,4,5,9
101165,Ghaws Azam Dastger Mosque,101,1,34.5090894700002,69.24231537,0,2,3,5
101167,Tap-E- Balkh Mosque,101,1,34.5097743000001,69.2022187200001,0,2,2,4
101168,Abdul Qader Jilani Mosque,101,1,34.5131608300001,69.23491421,0,1,4,5
101272,Mohammadia Mosque,101,1,34.5038333300001,69.0806944400001,0,1,1,2
101273,Homayoon Shaheed Mosque,101,1,34.4936111100001,69.0579722200001,0,4,4,8
404093,Malik Qarya House,404,4,34.1389160200001,68.53525356,0,1,2,3
1904169,Deh Kalan Secondary School,1904,19,36.62134152,69.00556012,0,1,1,2
2115306,Bakhtgaan Mosque,2115,21,35.8195771700001,66.64924657,0,1,1,2
2114296,Qara Bay Mosque,2114,21,35.96665403,66.88340723,0,1,2,3
2114295,Qara Bay School,2114,21,35.7739084010001,66.959255843,0,1,1,2
2112115,Joy Wakil Clinic,2112,21,37.3484383900001,66.97226293,0,1,2,3
2112114,Islam Ulya School,2112,21,37.29857827,66.4738270700001,0,1,2,3
2111195,Sikandar Khel Zhangora School,2111,21,36.754114,66.74931222,0,1,1,2
2110096,Khoshtoot Secondary School,2110,21,36.5863182900001,68.0649628000001,0,1,1,2
2110094,Deh Warda Village Mosque,2110,21,36.7850628100001,67.6888343300001,0,1,1,2
2110084,Ghazi Abad Secondary School,2110,21,36.7325935400001,67.7739742200001,0,1,1,2
2110083,Shahee Ahmad Shah Masood High School,2110,21,36.71468987,67.68674702,0,1,2,3
2109145,Afghania Mosque,2109,21,36.95715655,66.8446399800001,0,1,1,2
2109144,Yakhdan Mosque,2109,21,36.95979943,66.8165396900001,0,1,1,2
2109130,Hayatan School,2109,21,37.0003112500001,66.75654304,0,1,1,2
2109129,Khowala Bachgan School,2109,21,36.90954875,66.7636778,0,1,1,2
2109126,Delbar Jeen School,2109,21,36.9954513500001,66.5522439,0,1,2,3
2109125,Sadr Abad School,2109,21,36.9694165100001,66.7319372600001,0,1,1,2
2109123,Wazyezi Girls High School,2109,21,36.98097094,67.00316007,0,1,1,2
2109122,Maulana Wayezi Boys High School,2109,21,36.9728383800001,67.00618278,0,0,2,2
2109119,Rabia Balkhi School,2109,21,36.9869255600001,66.82017521,0,1,1,2
2109118,Dawlat Abad Municipality Building,2109,21,36.98804151,66.8216987100001,0,1,2,3
2108222,Nawshahr Alizai Mosque,2108,21,36.71874996,66.6465432800001,0,1,1,2
2108221,Qala-E-Raziq School,2108,21,36.6896811800001,66.6780782000001,0,1,2,3
2108214,Sar Asyab School,2108,21,36.64524892,66.8756859200001,0,1,2,3
2108213,Chamtal School,2108,21,36.67925041,66.8074152300001,0,1,2,3
2107262,Zowarha Mosque,2107,21,36.35913867,66.91380067,0,1,2,3
2107261,Siyab School,2107,21,36.4054142100001,66.91807728,0,1,2,3
2107241,Kandali School,2107,21,36.1162779200001,66.6765469900001,0,1,2,3
2107240,Tabyaq School,2107,21,36.3380311800001,66.7884856300001,0,1,1,2
2107238,Districts New Building,2107,21,36.31882396,66.8856455800001,0,1,2,3
2107237,Qadeem High School,2107,21,36.3169501400001,66.88473366,0,2,2,4
2106168,Shahab Mosque,2106,21,36.8807843100001,66.85710193,0,1,2,3
2106167,Muhmandan School,2106,21,36.83949381,66.8559970900001,0,2,3,5
2106156,Samar Qandiyan Girls School,2106,21,36.68607079,66.83680348,0,2,2,4
2106155,Hesarak Girls School,2106,21,36.7029401,66.8586557500001,0,1,2,3
2104279,Jaan Balaq School,2104,21,36.4043833700001,67.30786097,0,1,1,2
2104278,Tandoorak School,2104,21,36.431297,67.100965,0,1,2,3
2102069,Shahrak Afghania School,2102,21,36.8994643500001,67.1655183600001,0,2,2,4
2102068,Siyah Gerd School,2102,21,36.9315788400001,67.0831147100001,0,1,2,3
2101017,Asadya Darul Hefaaz,2101,21,36.7100914900001,67.0868912700001,0,1,1,2
2101016,Abu Muslim Khurasani School,2101,21,36.69527902,67.09315266,0,2,2,4
2101008,Baktash School,2101,21,36.7159584900001,67.1167016300001,0,3,5,8
2101007,Tebi Medical School,2101,21,36.71629289,67.1077501100001,0,3,4,7
2005099,Khwaja Zahed Madrasa,2005,20,35.6279079170001,67.7819010690001,0,1,2,3
2003098,Primary School,2003,20,36.084236408,68.321900294,0,1,2,3
2007045,Menbar Chahar Deh,2006,20,35.53307826,67.23121731,0,2,2,4
2007043,Surkh Deh Menbar,2006,20,35.60565661,67.03989461,0,1,1,2
2007042,Beni Mang Menbar,2006,20,35.6490433500001,67.19631741,0,2,3,5
2007039,Menbar Surkh Shahr,2006,20,35.81245742,67.37050066,0,1,2,3
2007038,Menbar Khami Hawz,2006,20,35.8217995200001,67.5141646600001,0,1,1,2
2007037,Menbar Kata Qeshlaq,2006,20,35.83234994,67.4018395400001,0,1,1,2
2007036,Menbar Hasani,2006,20,35.7385917300002,67.27872662,0,1,2,3
2006063,Nai Zaar Mosque,2006,20,35.9941378300001,67.5033029800001,0,1,2,3
2006062,Tolai Ghazi Mosque,2006,20,36.0374725800001,67.29878056,0,2,2,4
2006061,Lababi Madrassa,2006,20,36.04681753,67.4068711700001,0,2,2,4
2006060,Kata Qaq Madrassa,2006,20,36.13661195,67.4048583900001,0,2,2,4
2002025,Chochman Primary School,2002,20,36.2325602900001,67.5210460800001,0,1,2,3
2001007,Ajani Malki Girls High School,2001,20,36.26736187,68.0143619100001,0,6,2,8
2001006,Karte Khorasan Girls Secondary School,2001,20,36.30107661,68.00462688,0,1,3,4
2006054,Bazarak Madrassa,2006,20,35.7585759720001,67.0869304540001,0,1,2,3
2006048,Baghak Primary School,2006,20,35.9390133700001,67.4459673100001,0,1,3,4
2005095,Balghali Menbar,2005,20,35.6069200500001,67.56750451,0,1,2,3
2005065,Abdul Aziz High School,2005,20,35.7739681800001,67.8650055800001,0,2,3,5
2004032,Naw Abad Primary School,2004,20,36.5061104800001,67.69600633,0,1,1,2
2003081,Baba Qambar Secondary School,2003,20,36.0495477200001,68.18602243,0,1,2,3
2003080,Hazrat Numan Secondary School,2003,20,36.0266205200001,68.0624148200001,0,1,2,3
2001015,Sherekyaar Secondary School,2001,20,36.3168589600001,68.2231657000001,0,2,1,3
2001014,Shalkato High School,2001,20,36.3221710900001,68.0297284500001,0,1,1,2
2001011,Zahrabi Secondary School,2001,20,36.25527062,68.03910147,0,1,1,2
2001010,Aayencha High School,2001,20,36.2667960900001,68.03055485,0,2,3,5
2001005,Larghan Secondary School,2001,20,36.30122222,68.0048111100001,0,1,2,3
2001004,Dalkhaky Secondary School,2001,20,36.3413436400001,67.9361415800001,0,1,2,3
2006057,Oyemtan Mosque,2006,20,36.0871956700001,67.13878914,0,1,2,3
2006056,Zaagh Payan Madrassa,2006,20,35.9954597800001,67.15378192,0,1,1,2
2006052,Ali Khel Primary School,2006,20,35.99727134,67.15379028,0,2,2,4
2006051,Chobaki Secondary School,2006,20,35.9904721100001,67.23298886,0,1,1,2
2005068,Moho Primary School,2005,20,35.70273194,67.88852633,0,2,1,3
2005067,Chahar Chashma Primary School,2005,20,35.8330053400001,67.70553858,0,1,1,2
2004031,Feroz Nakhchir Boys School,2004,20,36.52812435,67.693097,0,1,2,3
2004030,Qosh Mola Mosque,2004,20,36.42311326,67.5283481600001,0,1,1,2
2003085,Aaq Chashma High School,2003,20,35.8655562200001,68.30776735,0,1,2,3
2003084,Shaakh Safid Primary School,2003,20,35.9444170200001,68.2243537100001,0,1,1,2
2002028,Baba Murad Mosque,2002,20,36.10483752,67.6413242900001,0,1,1,2
2002027,Boylar Mosque,2002,20,36.3595959000001,67.9152902600001,0,1,1,2
2002019,Omli Mosque,2002,20,36.49362761,68.34083065,0,1,1,2
2001089,Khwaja Burhan Secondary Schoo,2001,20,36.268519488,68.044181537,0,1,2,3
2001001,Manghar Madrassa,2001,20,36.26489285,67.961028,0,1,1,2
1907206,Sakhsa Kol School,1907,19,37.03603489,68.4795048,0,1,1,2
1906192,Haji Payenda Mosque,1906,19,36.9821509300001,69.1149429500001,0,1,1,2
1906191,Shahid Abdul Wahid School,1906,19,36.9787530900001,69.20794011,0,1,1,2
1905096,Jaihoon Primary School,1905,19,37.22026304,68.89104174,0,1,3,4
1905095,Aab Froshan School,1905,19,37.2243528500001,68.90664522,0,1,3,4
1905086,Besh Kapa Secondary School,1905,19,37.1392027800002,68.8395988400001,0,2,4,6
1905085,Kotrama High School,1905,19,37.1541230100001,68.6875416000001,0,1,3,4
1905067,Qarghan Tapa Secondary School,1905,19,37.2177777700001,68.94444444,0,1,3,4
1905066,Qalam Guzar High School,1905,19,37.2190608200001,69.04409132,0,1,2,3
1904172,Maaf Ali School,1904,19,36.6589656600001,69.0842024100001,0,1,1,2
1904171,Sondoq Say Juma Khowani Mosque,1904,19,36.5794154500001,69.0974744700001,0,1,1,2
1904170,Ochqadaq Juma Khowani Mosque,1904,19,36.5366046200001,69.20871819,0,1,1,2
1904163,Boheen Clinic,1904,19,36.71277315,69.04875937,0,1,1,2
1904158,Sadr Ramazan Boys High School,1904,19,36.6930872,69.0195960300001,0,1,1,2
1903134,Qazal Say Secondary School,1903,19,36.4434537300001,68.88099484,0,1,1,2
1903133,Larkhabi Boys High School,1903,19,36.55056997,68.90688788,0,1,1,2
1901033,Angoor Bagh School,1901,19,36.667296,68.8891424500001,0,2,2,4
1901032,Kobahi High School,1901,19,36.7238888800001,68.99194444,0,2,2,4
1907105,Yangee Aaraq School,1907,19,36.90433139,68.62305903,0,1,1,2
1907104,Kolokh Tapa School,1907,19,36.9878331500001,68.19699003,0,1,3,4
1907099,Markazi Qala Zaal High School,1907,19,37.0082571400001,68.4359349400001,0,1,3,4
1906216,Shereen Mosque,1906,19,36.8752393900001,69.2640713100001,0,1,1,2
1906185,Mula Qali High School,1906,19,37.0874535100001,69.1745375400001,0,1,2,3
1906184,Zarghoon School,1906,19,37.00441899,69.1849754900001,1,2,2,4
1905090,Noori Primary School,1905,19,37.1983256900001,68.8067087,0,1,3,4
1905089,Qara Wol School,1905,19,37.21948104,68.77955692,0,1,3,4
1905065,Eshantop Primary School,1905,19,37.1850751400001,69.00382111,0,1,1,2
1905064,Basoos School,1905,19,37.17330944,68.7974501400001,0,2,3,5
1905061,Qotr Blaaq School,1905,19,37.11896264,69.0674230800001,0,1,1,2
1905060,Ajghan High School,1905,19,37.15892612,68.85426729,0,1,3,4
1904211,Sajjani School,1904,19,36.7656521100001,69.05490445,0,1,2,3
1904210,Miyali Mosque,1904,19,36.5865905400001,69.1211009000001,0,1,1,2
1904146,Ishantop High School,1904,19,36.6453887900001,69.05475303,0,1,2,3
1904145,Nikpay Village Mosque,1904,19,36.7028623000001,69.0194371600001,0,1,2,3
1903138,Khel Gada Mosque,1903,19,36.51907004,68.90064465,0,1,1,2
1903137,Shana Tipa High School,1903,19,36.6219752300001,68.89259566,0,1,2,3
1903129,Ali Abad Boys High School,1903,19,36.50373223,68.90697406,0,1,2,3
1902207,Baghz Qum Secondary School,1902,19,36.8242475900001,68.6293197600001,1,1,1,2
1901198,Qochi Khord Secondary School,1901,19,36.75126637,68.9423197600001,0,1,2,3
1901197,Rostaq Abad Secondary School,1901,19,36.6937152200001,68.89328844,0,1,2,3
1901055,Haji Nasruddin Mosque,1901,19,36.813574,68.8594652600001,0,2,1,3
1901054,Zarkhareed Zakhil Mosque,1901,19,36.7568647200001,68.83113969,0,1,2,3
1901044,Khazani Secondary School,1901,19,36.73083333,68.91916666,0,2,2,4
1901043,Qazaq Mosque,1901,19,36.6558409850001,68.8926464910001,0,2,2,4
1901021,Zakhil Khamdan,1901,19,36.7031701300001,68.8485864400001,0,1,3,4
1901020,Kuhan Duzh High School,1901,19,36.7470578400001,68.86723702,0,1,3,4
1901015,Municipality Office,1901,19,36.7224963800001,68.87099521,0,2,2,4
1901014,Bibi Ayesha Sediqa High School,1901,19,36.73787679,68.8663662500001,0,4,1,5
1901011,Law Department,1901,19,36.7226958600001,68.8684601300001,0,2,4,6
1901010,Hazrat Ali High School,1901,19,36.7128894600001,68.86304798,0,2,4,6
1907113,Zulm Aabad School,1907,19,36.9234685100001,68.5488743700001,0,1,1,2
1907112,Baghicha Secondary School,1907,19,36.947773,68.132773,0,1,1,2
1907110,Halqa Kol School,1907,19,37.0371424700001,68.3971513100001,0,1,1,2
1907109,Etihaad High School,1907,19,37.0111451400001,68.5230452700001,0,1,2,3
1906190,Gul Balaq Secondary School,1906,19,36.87805555,69.21916666,0,1,3,4
1906189,Jaame Mosque,1906,19,36.9175253900001,69.2793447700001,0,1,1,2
1906179,Qashqari Secondary School,1906,19,37.0506848300001,69.2657402,0,1,2,3
1906178,Jamhoriat High School,1906,19,37.03393587,69.2404313500001,0,1,2,3
1905201,Juma Khowani Payeen Mosque,1905,19,37.13017502,69.0422376300001,0,1,2,3
1905200,Murad Shaikh Secondary School,1905,19,37.1937656400001,68.7668755200001,0,1,3,4
1905074,Alef Berdy School,1905,19,37.2000867300001,68.97864311,0,1,3,4
1905073,Naswan Markazi High School,1905,19,37.18603908,68.90350455,0,3,2,5
1904161,Jangal Bashi Boys High School,1904,19,36.69563012,69.0585183300001,0,1,1,2
1904160,Kuhna Qala Secondary School,1904,19,36.70512121,69.1351320900001,0,1,1,2
1904151,Chahar Toot High School,1904,19,36.66545241,69.1077011300001,0,1,1,2
1904150,Chonai Secondary School,1904,19,36.4875019800001,69.1179382600001,0,1,1,2
1903217,Cheep Secondary School,1903,19,36.4828958800001,68.9198675000001,0,1,1,2
1903209,Mir Shekh Secondary School,1903,19,36.5769883500001,68.8566453000001,0,1,1,2
1903140,Pul Kheshti High School,1903,19,36.576103,68.904435,0,1,1,2
1903139,Zangi Say School,1903,19,36.4390595490001,69.0450395810001,0,1,1,2
1902126,Nahr Sufi Mosque ,1902,19,36.7078671200001,68.80020983,0,1,1,2
1902125,Juma Bazar Mosque,1902,19,36.7824277700001,68.6474777700001,0,1,2,3
1902123,Dagh Aaraq Primary School,1902,19,36.74570128,68.6429764900001,0,1,1,2
1902122,Ainul Majar High School,1902,19,36.78070283,68.6868282900001,0,2,2,4
1902114,Jamiyat High School,1902,19,36.6920032700001,68.7968554000001,0,1,2,3
1901049,Medyoteek Markaz,1901,19,36.69805555,68.8834166600001,0,1,2,3
1901048,Choqor Qishlaq School,1901,19,36.7497755900001,68.9875854600001,0,2,2,4
1901038,Kata Khel Secondary School,1901,19,36.6775311800001,68.9440444000001,0,1,3,4
1901037,Kanam Kalan Primary School,1901,19,36.79052482,68.9510200400001,0,1,3,4
1901029,Malraghi Girls High School,1901,19,36.6595407300001,68.9833746900001,0,1,2,3
1901028,Qochi Kalan School,1901,19,36.7317496000001,68.9657917700001,0,3,4,7
1901026,Taimori Alcheen School,1901,19,36.7946240600001,68.88841092,0,1,3,4
1901025,Tobra Kash School,1901,19,36.8517118200001,68.7147415,0,2,1,3
1901007,Sher Khan High School,1901,19,36.72394432,68.8683762400001,0,2,5,7
1901006,Khwaja Mashhad High School,1901,19,36.72398589,68.8842809900001,0,1,3,4
1901004,Fatima Zahra High School,1901,19,36.7225974900001,68.8737975600001,0,3,2,5
1901003,Ghazi Khan High School,1901,19,36.7058930700001,68.878826,0,2,5,7
1810211,Primary School,1810,18,37.025418737,69.765293815,0,1,2,3
1810210,Secondary School,1810,18,37.0389186320001,69.9387955190001,0,1,2,3
1814156,Imam Abu Hanifa High School,1814,18,37.33687851,69.5304471100001,0,1,2,3
1814155,Khwaja Bahauddin Boys High School,1814,18,37.3382790800001,69.5399266700001,0,1,2,3
1812201,Arabkakul Secondary School,1812,18,37.24508,69.47595999,0,1,1,2
1810197,Aabzan Secondary School,1810,18,36.933804094,69.9457303080001,0,1,1,2
1810127,Mawlawi Abdul Qudoos Shaheed Secondary School,1810,18,37.0829190900001,69.9494294500001,0,1,3,4
1810126,Abu Huraira Secondary School,1810,18,36.9598178800001,69.9705467800001,0,1,1,2
1810117,Chenar Village Mosque,1810,18,36.9344641300001,69.7921220200001,0,1,1,2
1810116,Qadaq Jawaz Khana Clinic,1810,18,36.9655256900001,69.7738298,0,1,3,4
1810101,Hazrat Omar Farooq High School,1810,18,37.1412930200001,69.7970337,0,2,4,6
1809190,Hasamuddin Shaheed High School,1809,18,37.0099317900001,69.36678506,0,1,3,4
1809055,Hamwar Say Primary School,1809,18,36.9256513700001,69.3841144900001,0,2,2,4
1809054,Haji Mirza Mohammad Secondary School,1809,18,37.136819,69.4165991400001,0,1,2,3
1807100,Mohammad Hussain Shaheed High School,1807,18,36.7505652800001,69.94651683,0,1,3,4
1806082,Sad Bargan School,1806,18,36.5768135410001,69.703216239,0,1,2,3
1801030,Abdul Rahman Taloqani High School,1801,18,36.76146277,69.5344377300001,0,1,2,3
1801029,Tarma Baay School,1801,18,36.7974376900001,69.4973732600001,0,1,2,3
1801028,Chenza Yee School,1801,18,36.7266541700002,69.3036285800001,0,1,1,2
1801027,Joy Shekh School,1801,18,36.6659573900001,69.6364177200001,0,1,1,2
1801019,Fayaz Shaheed High School,1801,18,36.70620703,69.5587575600001,0,2,2,4
1801018,Malaria Clinic,1801,18,36.727230269,69.5678115050001,0,2,4,6
1801008,Qari Sediq High School,1801,18,36.7636252000001,69.4804353600001,0,1,2,3
1801007,Bibi Hajera Girls High School,1801,18,36.74108165,69.5368375300001,0,1,2,3
1817153,Jarbashi School,1817,18,37.5064377400001,69.6801415400001,0,1,2,3
1817152,Mughlan Secondary School,1817,18,37.40977759,69.7377365,0,1,1,2
2115307,Bazar Kuhna Mosque,2115,21,35.79864902,66.65655685,0,1,2,3
2115308,Mir Hashim School,2115,21,35.9772981100001,66.712397889,0,1,1,2
2115309,Imam Hassan School,2115,21,35.7376471260001,66.664744262,0,1,2,3
2115317,Hazar Paimana Mosque,2115,21,35.86633564,66.7961627200001,0,1,1,2
2115318,Khatimul Anbiya High School,2115,21,35.71117501,66.73298269,0,2,1,3
2101023,Sayed Ismail Balkhi School,2101,21,36.6829610900001,67.09460181,0,2,3,5
2101024,Nasaji,2101,21,36.6787938300001,67.0830131600001,0,1,1,2
2101029,Khurasan Girls School,2101,21,36.6912254900001,67.12259213,0,3,4,7
2101030,Ustad Jaahed School,2101,21,36.7159347900001,67.1386502600001,0,1,1,2
2101041,Shaheed Abdul Ali Mazari Number 2 School,2101,21,36.7192049180001,67.156912832,0,3,4,7
2101042,Neft O Gas Institute,2101,21,36.7104260400001,67.1269615300001,0,2,2,4
2103052,Bibi Zainab School,2103,21,36.66783093,66.93153895,0,3,4,7
2103053,Kaka Kot School,2103,21,36.7042466300001,66.95107762,0,1,2,3
2103056,Ghulam Mohammad Shaheed School,2103,21,36.6657706000001,67.0051358200001,0,1,3,4
2103057,Saleh Mohammad School,2103,21,36.65728069,66.9661175200001,0,2,2,4
2103062,Shaikh Abad School,2103,21,36.6692133800001,66.98563354,0,2,2,4
2104274,Shar Shar Sufla School,2104,21,36.4157215500001,67.18882246,0,1,1,2
2106149,Amir Mohammad Tokhi School,2106,21,36.7386694600001,66.8928768100001,0,1,2,3
2106151,Sehat Aama Clinic,2106,21,36.75115568,66.8982958,0,1,2,3
2106162,Colombo School,2106,21,36.8331655000001,66.9401859600001,0,1,1,2
2106163,Dewali Maidan School,2106,21,36.90615655,66.91052784,0,1,2,3
2106173,Arghandab Mosque,2106,21,36.82595595,66.7883504200001,0,1,1,2
2106174,Oof Maleek School,2106,21,36.6876157,66.8798696900001,0,1,2,3
2107244,Bibi Amena School,2107,21,36.38632024,66.8858490100001,0,1,2,3
2107245,Agha Jan School,2107,21,36.39942851,66.88643168,0,1,1,2
2107250,Ahmad Alkhadroya School,2107,21,36.36404936,66.8805223800001,0,2,2,4
2107251,Bibi Maryam School,2107,21,36.3490340500001,66.8805166300001,0,1,2,3
2107256,Qaland Khalili School,2107,21,36.4131252300001,66.9329974,0,1,2,3
2107257,Ai Latan School,2107,21,36.31602631,66.91434837,0,1,2,3
2107273,Lal Mohammad Private House,2107,21,36.3927083100001,66.8875799400001,0,1,1,2
2108211,Mir Qasim Jan School,2108,21,36.6414269200001,66.9084262500001,0,1,1,2
2108232,Rabat School,2108,21,36.5962784400001,66.9439729800001,0,1,1,2
2108233,Nawshahr Alizai Mosque,2108,21,36.7269003800001,66.57765352,0,1,2,3
2109133,Tali Gag School,2109,21,37.0258262500001,66.77331454,0,1,2,3
2109134,Hashim Abad Mosque,2109,21,36.9646858500001,66.87380091,0,1,1,2
2109139,Zadiyan School,2109,21,37.0287151600001,66.9433117500001,0,1,1,2
2109140,Bay Mashhad School,2109,21,36.9453512700001,66.8254389,0,1,1,2
2110079,Khwaja Burhan Girls School,2110,21,36.7043737500001,67.7277756,0,2,1,3
2110080,Amin Hussain Girls School,2110,21,36.7115320300001,67.6869037700001,0,2,1,3
2111180,Abu Shakoor Balkhi School,2111,21,36.7538094600001,66.67056431,0,1,1,2
2111181,Ahmad Abad School,2111,21,36.89589412,66.6235412600001,0,1,2,3
2111184,Arnagha School,2111,21,36.8254637400001,66.6803475400001,0,1,2,3
2111185,Adeena Mosque,2111,21,36.89436801,66.70254091,0,1,1,2
2111190,Borolok School,2111,21,36.9252235800001,66.5648523800001,0,1,1,2
2111191,Badaye Bakhli School,2111,21,36.77254882,66.59436644,0,1,1,2
2111201,Districts Building,2111,21,36.7674442500001,66.70557881,0,1,1,2
2111202,Mangoli School,2111,21,36.87782087,66.5931455300001,0,1,1,2
2111206,Jame Mosque,2111,21,36.84249054,66.743505,0,1,1,2
2111207,Mula Shaheen Private House,2111,21,36.7857304400001,66.7491289100001,0,1,1,2
2112109,Jirtan School,2112,21,37.17481985,67.32541634,0,1,2,3
2112110,Tashguzar School,2112,21,37.2021791500001,67.2100113700001,0,1,2,3
2113101,Tazlaq Secondary School,2113,21,37.2334540800002,67.5054935,0,1,2,3
2113102,Haji Wali Private House,2113,21,37.1850316600001,67.7436825400001,0,1,1,2
2113105,Bozareekh Secondary School,2113,21,37.1952991600001,67.7200387000001,0,1,1,2
2113106,Kareem Qaryadar Private House,2113,21,37.1987857800001,67.6781713500001,0,1,1,2
2114290,Kushenda Bala School,2114,21,36.07968956,66.9007749800001,0,1,2,3
2114291,Kushenda Payan School,2114,21,36.15308457,66.92153775,0,1,2,3
2115313,Abdaalgan Secondary School,2115,21,35.8317105000001,66.73298013,0,1,2,3
2201027,Qashqari Village School,2201,22,36.1492099400001,66.0283413000001,0,2,2,4
2201034,Se Toot Village Mosque,2201,22,36.03248143,66.03938707,0,1,1,2
2202051,Tarbalaq Secondary School,2202,22,36.1033415400001,65.9059525100001,0,1,1,2
2202052,Dara-E-Band Mosque Property,2202,22,36.0969887000001,65.7058002,0,2,2,4
2202057,Mirza Walang Secondary School,2202,22,35.99268518,65.79474113,0,2,1,3
2203062,Nagala Mosque,2203,22,35.91189592,65.88383982,0,1,1,2
2203063,Sar Deh Mosque,2203,22,35.8358972900001,65.8963429100001,0,2,2,4
2205103,Sabz Village Mosque,2205,22,35.8662409900001,66.3368854400001,0,2,2,4
2205104,Topkhana Village Mosque,2205,22,35.8968961000001,66.3514374700001,0,1,2,3
2205113,Charoo Mosque,2205,22,35.8593959,66.44255611,0,1,1,2
2205119,Farshqan Miyana Mosque,2205,22,35.9363766700001,66.4588444300001,0,1,1,2
2205120,Rostam Qaryadar Mosque,2205,22,36.0555014800001,66.4097305000001,0,1,1,2
2206129,Shah Mard Village Madrassa,2206,22,35.8697297700001,66.48618482,0,1,2,3
2206130,Karan Village Madrassa,2206,22,35.9108662900001,66.52368167,0,2,2,4
2206134,Alghan Afghania Mosque,2206,22,36.0002794500001,66.53189742,0,2,2,4
2207097,Zawj Madrassa,2207,22,35.3089173400001,66.40347416,0,2,2,4
2207098,Bajgah Madrassa,2207,22,35.67001757,66.6089896300001,0,1,3,4
2207100,Pitab Secondar School,2207,22,35.6684656200001,66.56947356,0,2,2,4
2301001,Sultan Alauddin Ghori High School,2301,23,34.5211506100001,65.2586938900001,0,2,4,6
2201003,Rahmat Abad High School,2201,22,36.22578867,65.9343748800001,0,2,4,6
2201004,Imam Yahya High School,2201,22,36.2148994800001,65.9493037000001,0,2,3,5
2203065,Himat Deh Surkh O Pas Nai High School,2203,22,35.7666783400001,65.7717925600001,0,1,2,3
2204036,Gorkaab Ulya Mosque,2204,22,36.02450553,66.2349133200001,0,1,2,3
2204037,Tanzeel Mosque,2204,22,36.00471307,66.2224120700001,0,1,1,2
2204041,Khanqah Girls Secondary School,2204,22,35.8845529400002,66.14349231,0,1,3,4
2206136,Yoltarab Girls Secondary School,2206,22,35.95484356,66.5186341400001,0,1,2,3
2207087,Tagab Takht Madrassa,2207,22,35.65852671,66.91759075,0,1,2,3
2207090,Doshakh School,2207,22,35.4636563,66.79544838,0,2,3,5
2207091,Tolo Jorazi High School,2207,22,35.57724984,66.7167499400001,0,2,2,4
2207094,Pay Ziarat Mosque,2207,22,35.4593518700001,66.4414069800001,0,2,3,5
2207095,Peghola Madrassa,2207,22,35.41564898,66.3317289500001,0,2,2,4
2203139,Mosque,2203,22,35.5462130140001,65.569336464,0,1,2,3
2204140,School,2204,22,35.875472772,66.1243628180001,0,1,2,3
2205142,Khwaja Surkh School,2205,22,36.039848479,66.3739318240001,0,1,2,3
2206143,Mosque,2206,22,36.0910678530001,66.6663733940001,0,1,2,3
2201008,Korak Uzbekya Secondary School,2201,22,36.28150717,65.87225272,0,1,2,3
2201009,Baghawi Uzbekya Secondary School,2201,22,36.1779877900001,66.07767318,0,2,3,5
2201010,Qosh Tapa High School,2201,22,36.34297924,65.8913949500001,0,1,4,5
2201020,Qadam Jay Madrassa,2201,22,36.23309756,66.17719715,0,1,1,2
2202048,Mula Sakhidad Girls High School,2202,22,36.1402382200001,65.8322488800001,0,1,3,4
2202049,Angushka Secondary School,2202,22,36.1802253300001,65.8587041600001,0,1,2,3
2202053,Qara Khowal Mosque Property,2202,22,36.03979421,65.64685523,0,2,2,4
2202054,Shah Toot Village Madrassa,2202,22,36.0095069600001,65.5475138200001,0,1,2,3
2203069,Qala-E-Shahr Madrassa,2203,22,35.5463138700001,65.5682945600001,0,1,1,2
2203070,Haji Mula Qurban Mosque,2203,22,35.52415506,65.55233503,0,1,2,3
2203082,Azadi High School,2203,22,35.2827386100001,66.19626033,0,1,2,3
2203083,Shaheed Mazari High School,2203,22,35.1336659300001,66.2339570300001,0,1,1,2
2204043,Sabzi Kalan Mosque,2204,22,36.11104887,66.28385007,0,1,1,2
2204047,Bagh Ishaaq Village Mosque,2204,22,36.0698989400001,66.29019732,0,1,1,2
2205106,Irfan Secondary School,2205,22,35.9648793200001,66.36867878,0,2,2,4
2205111,Chinar Mosque,2205,22,35.9596815900001,66.4421585100001,0,2,2,4
2205116,Archatoo Primary School,2205,22,36.01072321,66.39752112,0,2,2,4
2205121,Kabood Aab Mosque,2205,22,35.7304086600001,66.3685986500001,0,1,1,2
2206124,Shekyar Village Mosque,2206,22,36.06651494,66.57553751,0,1,1,2
2206132,Aabdara Village Mosque,2206,22,35.7682304000001,66.56350641,0,1,1,2
2301005,Zartali School,2301,23,34.3287446500001,65.4086260700001,0,2,3,5
2301006,Bazaar Qibi,2301,23,34.2057611,65.4025938300001,0,1,3,4
2301008,Tagha-E-Taimur School,2301,23,34.45342651,65.1207597000001,0,1,3,4
2301009,Kaasi Ulya School,2301,23,34.6009938900001,65.2929104400001,0,1,3,4
2301017,Abdul Ahmad Open Space,2301,23,34.6450332300001,64.9213417700001,0,2,2,4
2301018,That Ghelmeen High School,2301,23,34.8735612100001,65.3035311500001,0,2,3,5
2301023,Abdul Haq Open Space,2301,23,35.0399978500001,65.8519767600001,0,2,2,4
2301024,Nadir Khan Pahlo Sang Qala,2301,23,34.28206278,65.5513578400001,0,1,3,4
2301028,Qots Sufla Secondary School,2301,23,34.5642444900001,65.3615913300001,0,2,2,4
2301029,Sadmen Ghelmeen Primary School,2301,23,34.87349369,65.24894707,0,2,3,5
2301036,Habibullah Dahoor Private House,2301,23,35.1317103300001,65.62082361,0,1,3,4
2301045,Tameer Hassan,2301,23,34.8836263200001,65.44099928,0,2,3,5
2301235,Maidan Bara Khana,2301,23,34.6045462000001,64.81949201,0,2,2,4
2302100,Mohammad Yaqoob Private House,2302,23,33.8837204400001,64.90466557,0,1,1,2
2302101,Gala Asyaab Bazar,2302,23,34.2726115500001,64.88174259,0,2,1,3
2302108,Salmeen School,2302,23,34.4074557000001,64.8003738700001,0,2,1,3
2303046,Dawlatyar School,2303,23,34.5555292900002,65.78680996,0,1,2,3
2303047,Poshta Noor School,2303,23,34.63458067,65.91717699,0,2,2,4
2303049,Shiniya Mosque,2303,23,34.5247822100001,65.6605037800001,0,1,2,3
2303050,Khairullah Mosque,2303,23,34.5822175400001,65.7166036000001,0,1,2,3
2303052,Bazar Samak Tent,2303,23,34.6667678400001,65.83823426,0,1,1,2
2303053,Narm Tih Mosque,2303,23,34.43509059,65.8680375100001,0,1,1,2
2303057,Loka Mazar Mosque,2303,23,34.44121009,65.6707530400001,0,1,2,3
2303058,Jira School,2303,23,34.6698876500001,65.7359419900001,0,2,1,3
2304059,Mohammad Ibrahim Private House,2304,23,35.1410383800001,64.95196839,0,2,2,4
2304060,Khafak Mosque,2304,23,35.0309575600001,65.0722261000001,0,1,2,3
2304063,Deh Haji School,2304,23,35.03931853,65.1876330800001,0,1,2,3
2304064,Qala Gawhar High School,2304,23,35.17707778,65.1315262000001,0,1,2,3
2304071,Bagh Habibullah,2304,23,35.17950238,64.8988157300001,0,1,1,2
2305111,Sangan School,2305,23,33.5796002600001,65.0634923,0,1,2,3
2305114,Bazar Kalagi Tent,2305,23,33.7015541600001,65.1044413100001,0,2,2,4
2305118,Kuhna Shenkot Bazar Tent,2305,23,33.6921642300001,64.848727,0,1,1,2
2305119,Norak Primary School,2305,23,33.78655058,64.8814651000001,0,1,1,2
2306089,Yak Sang School,2306,23,34.29115912,64.3922164900001,0,1,1,2
2306090,Bedan School,2306,23,34.46017858,64.5453298900001,0,1,1,2
2307137,Qazal School,2307,23,34.459791,66.0434714800001,0,1,3,4
2307138,Garm Aab Sufla School,2307,23,34.4542582700001,65.9495251600001,0,1,1,2
2307153,Bekh Sang School,2307,23,34.55538971,66.1246557100001,0,1,3,4
2307154,Sare Diwalak School,2307,23,34.4204041400001,66.3586191800001,0,1,1,2
2307158,Sang Zard School,2307,23,34.5848482800001,66.0435680400001,0,1,1,2
2307159,Qala Shakraki Mosque,2307,23,34.4865742300001,66.3414645600001,0,1,1,2
2307172,Ghighanak School,2307,23,34.7300598000001,66.2061091000001,0,1,1,2
2307173,Shinya Haigal Mosque,2307,23,34.5722086000001,66.2142191200001,0,1,1,2
2307177,Sar Sokhta Mosque,2307,23,34.5196201100001,66.01518937,0,1,1,2
2308209,Pas Qala High School,2308,23,33.5245055800001,64.4181475500001,0,1,2,3
2308211,Aashoqan School,2308,23,33.5898827800001,64.26253579,0,1,2,3
2308212,Abdullah Larqa Private House,2308,23,33.57948062,64.15545811,0,2,1,3
2309187,Dayee Secondary School,2309,23,34.1796885200001,63.55742742,0,1,2,3
2301012,Lal Mohammad Private House,2301,23,34.67500197,65.00104257,0,2,3,5
2301013,Badgah Girls High School,2301,23,34.5207304500001,65.4880926600001,0,1,3,4
2301034,Sanmay Rakhna Safid Mosque,2301,23,34.71326514,64.8174804900001,0,2,1,3
2301035,Ghulaman School,2301,23,34.55458393,64.65098401,0,1,4,5
2304068,Chahar Qadoq Mosque,2304,23,35.2499768000001,65.04782456,1,2,1,3
2304069,Maseen Mosque,2304,23,35.1751676000001,65.05918863,0,1,2,3
2306083,Nasfanj Primary School,2306,23,34.2680182400001,64.11548882,0,1,1,2
2307143,Joqal School,2307,23,34.36665361,66.16168708,0,1,2,3
2307144,Qolani School,2307,23,34.4108654400002,66.23578037,0,1,1,2
2307147,Rashk Mosque,2307,23,34.5194980200001,66.3411240200001,0,1,1,2
2307148,Sray Karman School,2307,23,34.4609548200001,66.52105273,0,1,2,3
2308215,Nili School,2308,23,33.24331259,64.41245297,0,2,3,5
2308216,Khum Paay Hisar School,2308,23,33.61982457,64.4729016,0,1,1,2
2308219,Yakhan Ulya High School,2308,23,33.5399249000001,64.5350064500001,0,1,2,3
2308222,Kelgo School,2308,23,33.7348702800001,64.55713238,0,1,2,3
2308223,Sayed Alauddin Private House,2308,23,33.46522637,64.2319310500001,0,1,2,3
2308227,Zarni Secondary School,2308,23,33.17906012,64.3347651400001,0,2,1,3
2301031,Hawz Saaleh,2301,23,35.2160599520001,64.769593198,0,2,2,4
2302104,Fazal Ahmad Bagh,2302,23,34.444350772,64.859652245,0,2,2,4
2302105,Arbab Sakhi Private House,2302,23,34.39352751,64.69357218,0,2,1,3
2302110,Sar Chehl Gazai Mosque,2302,23,34.0071637500001,64.8549517200001,0,1,2,3
2304066,Najibullah Private House,2304,23,35.1918517,64.8796509300001,0,1,1,2
2305129,Dahna Dewalak School,2305,23,33.7025621500001,65.19422547,0,2,1,3
2306078,Dahn Hisar School,2306,23,34.1530985700001,64.0709277700001,0,2,1,3
2306079,Girls School,2306,23,34.3843875200001,64.34763666,0,1,1,2
2306086,Barzo Primary School,2306,23,34.5055969,64.09427826,0,1,2,3
2306087,Margha Primary School,2306,23,34.35146229,64.26494728,0,1,1,2
2307140,Sang Shanda School,2307,23,34.3925131900001,65.99943691,0,2,1,3
2307156,Dahn Laka Sang Mosque,2307,23,34.5789840900001,65.9320289,0,1,1,2
2307161,Kata Chashma School,2307,23,34.6645587000001,66.0264268300001,0,1,2,3
2307168,Safid Aab Shinya Mosque,2307,23,34.5702154300001,66.5928006500001,0,1,1,2
2307169,Tagab Sayeed Mosque,2307,23,34.6103694100001,66.5570302900001,0,1,2,3
2307175,Talto Karman School,2307,23,34.4690309200001,66.46968251,0,1,1,2
2309181,Dahan Guldan Mosque,2309,23,33.99119319,63.90040867,0,1,1,2
2309182,Kabotar Khan Primary School,2309,23,33.9765656200001,63.72614579,0,2,2,4
2310199,Dila Bagh,2310,23,33.54298048,63.46830262,0,2,1,3
2310200,Dahn Dotayee School,2310,23,33.8535331230001,63.9723377860001,0,1,1,2
2310201,Manak Sufla Secondary School,2310,23,33.6735445800001,63.89883358,0,1,2,3
2310204,Akheri Secondary School,2310,23,33.6425503800001,63.5970147,0,2,2,4
2310205,Zer Tangi Mosque,2310,23,33.7897992200001,63.9868563500001,0,1,1,2
2402015,Shiniya Mosque,2402,24,33.74388019,66.3284183200001,0,1,1,2
2402016,Palich Mosque,2402,24,33.67066782,66.60552723,0,1,1,2
2402024,Shalij Mosque,2402,24,33.6499218800001,66.2602421300001,0,1,2,3
2402025,Ashkar Abad Mosque,2402,24,33.60942849,66.58585862,0,1,1,2
2402035,Asho Gholaka Mosque,2402,24,33.5432478700001,66.61681736,0,1,2,3
2403104,Dahn Jangal Qakhor Mosque,2403,24,33.58442533,65.9937124400001,1,1,1,2
2403109,Sahib Zaman Wageer Mosque,2403,24,33.6714680900001,66.08165481,0,1,1,2
2403110,Chalzai Bazar School,2403,24,33.4707791000001,66.1283169500001,0,1,1,2
2403114,Sohoor Tagabdar Mosque,2403,24,33.3658984800001,66.0168064700001,0,2,3,5
2403115,Haji Baz Mohammad Mosque,2403,24,33.6027058700001,66.0612562600001,1,1,1,2
2404036,Siyah Nawar Abdi Mosque,2404,24,33.9833204700001,66.37603146,0,1,2,3
2404037,Safid Sang Mosque,2404,24,34.0296470700001,66.5046142100001,0,1,2,3
2404042,Gum Aab Mosque,2404,24,34.289447601,66.5232700440001,0,1,1,2
2404043,Loran Khushk Mosque,2404,24,33.95999533,66.2913291500001,0,1,2,3
2405088,Khadeer Sufla Mosque,2405,24,33.9272007500001,65.91978829,0,1,1,2
2405089,Shakar Dara Mosque,2405,24,33.8236389200001,65.7059779800001,0,1,1,2
2405091,Dastani School,2405,24,33.80223138,65.66240424,0,1,1,2
2405092,Bazi Village Mosque,2405,24,33.75145633,65.6833615900001,0,1,1,2
2407146,Askan Mosque,2407,24,33.7296933000001,66.7924748100001,0,1,2,3
2407147,Surkh Joy Mosque,2407,24,33.8877444,66.8711677000001,0,1,2,3
2407154,Watana Boys High School,2407,24,33.8516617000001,67.14600031,0,1,1,2
2407155,Shinya Nek Mosque,2407,24,33.8764271400001,67.2994113400001,0,1,1,2
2407157,Shinya Barkar School,2407,24,33.7758594800001,67.0541413900001,0,1,2,3
2407158,Shina Ashto Mosque,2407,24,33.7027513200001,66.95718975,0,1,1,2
2407166,Gargai Village Mosque,2407,24,33.97174462,66.6036771300001,0,1,1,2
2407167,Do Jahan Tikan Barkar Mosque,2407,24,33.85756736,67.05045427,0,1,1,2
2408074,Shinya Qaramat School,2408,24,34.20791122,66.1804537000001,0,1,2,3
2408075,Qala-E-Sangi Mosque,2408,24,34.11891857,66.07943836,0,1,2,3
2408079,Siyah Chob Bazar Mosque,2408,24,34.0383636300001,65.6290540800001,0,1,2,3
2408080,Shinya Les Mosque,2408,24,34.10876096,65.7166963400001,0,1,1,2
2409059,Laghar Joy School,2409,24,33.2327733100001,65.4650512800001,0,1,1,2
2409060,Baghban Mosque,2409,24,33.22924569,65.69176758,0,1,1,2
2409066,Sayed Abad Mosque,2409,24,33.122198066,65.445042975,1,1,1,2
2409070,Sulaiman Abad Mosque,2409,24,33.2369835900001,65.5953317500001,0,1,1,2
2409168,Haftad Nafar Mosque,2409,24,33.32862255,65.72167609,0,1,1,2
2401003,Shish School,2401,24,33.8407719600001,66.0244396600001,0,1,2,3
2401004,Bazar Pishok Mosque,2401,24,33.8866269000001,66.1611260700001,0,1,2,3
2401012,Pai Nili Mosque,2401,24,33.6969555900001,66.1785422100001,0,1,2,3
2402013,Waras School,2402,24,33.6686245000001,66.43822593,0,1,2,3
2402019,Olqan Mosque,2402,24,33.6957069200001,66.54928033,0,1,2,3
2402020,Tagab Largar Mosque,2402,24,33.8886167,66.3962043100001,0,1,1,2
2402030,Tagag High School,2402,24,33.7379533700001,66.6303901100001,0,1,1,2
2402031,Faiz Abad Mosque,2402,24,33.80847717,66.6157027500001,0,1,1,2
2404046,Qalandaran Mosque,2404,24,34.2515757700001,66.30810555,0,1,1,2
2404047,Elsafi Mosque,2404,24,34.2182383500001,66.3496786200001,0,1,1,2
2404052,Chaka Jankan Mosque,2404,24,34.1846229,66.2856985500001,0,1,1,2
2404053,Surkh Joy Mosque,2404,24,34.0326038500001,66.27536504,0,1,1,2
2405095,Dahan Gham Qol School,2405,24,33.90424922,65.76879382,0,1,1,2
2405096,Pitabak Korga School,2405,24,33.88531186,66.05138915,0,1,1,2
2405100,Takht Kiyan Mosque,2405,24,33.7820898000001,65.8787863300001,0,1,2,3
2405101,Qorb Ali School,2405,24,33.9989494,65.7863709,0,1,2,3
2406126,Kuhna Deh Madrassa,2406,24,33.6454330600001,65.7811550500001,0,1,2,3
2406127,Karwan Sarai Mosque,2406,24,33.6364296300001,65.7052117000001,0,1,2,3
2406139,Shoro Kiso Mosque,2406,24,33.41126712,65.7702395000001,0,1,2,3
2406140,Monami Mosque,2406,24,33.5344861400001,65.7327294600001,0,1,2,3
2407161,Tai Jang Mosque,2407,24,33.67396683,66.9108125600001,0,1,1,2
2407162,Siyah Bomak Rabat Mosque,2407,24,33.9486686600001,66.76181876,0,1,1,2
2402173,Mosque,2402,24,33.8838816200001,66.500231271,0,1,2,3
2402174,Mosque,2402,24,33.806664976,66.709412969,0,1,2,3
2402175,School,2402,24,33.8453450120001,66.2652594510001,0,1,2,3
2405183,School,2405,24,33.865881244,65.840845552,0,1,2,3
2406184,Mosque,2406,24,33.4289057,65.838021977,0,1,2,3
2406185,Mosque,2406,24,33.4821723020001,65.6913290700001,0,1,2,3
2406143,Hoshi Mosque,2406,24,33.48991363,65.7603058000001,0,1,2,3
2407144,Orlak Mosque,2407,24,33.8361289000001,66.9227409800001,0,2,1,3
2406129,Shina Kiti Mosque,2406,24,33.57957573,65.7319024,0,1,2,3
2405180,School,2405,24,33.68892001,65.6188188140001,0,1,2,3
2405181,Mosque,2405,24,33.891592349,65.908072577,0,1,2,3
2401007,Sang Moom Mosque,2401,24,33.69642324,66.1433515300001,0,2,1,3
2401008,Dasht Mosque,2401,24,33.7589729800001,66.15224204,0,1,2,3
2403117,Chonai Bazar Mosque,2403,24,33.3803875700001,66.26317942,0,1,1,2
2405085,Shiniya Khadeer Ulya Mosque,2405,24,33.9146177200001,65.94492796,0,1,1,2
2405086,Dahn Say Pasi Band School,2405,24,34.0356973300001,65.91929767,0,1,1,2
2407163,Zaspa Tuqman Dara Mosque,2407,24,33.6577837900001,66.85698672,0,1,1,2
2407164,Tai Barkar Mosque,2407,24,33.79113795,67.0144330800001,0,1,1,2
2408071,Jafaria Bazar Sang Takht Mosque,2408,24,34.26387995,66.13526031,0,1,3,4
2408072,Shinya Chaka Mosque,2408,24,34.2822606600001,66.07140697,0,1,3,4
2408076,Bazar Siyah Kharak School,2408,24,34.27275754,65.87733785,0,1,2,3
2408077,Bazar Salbito School,2408,24,34.1886092900001,65.8167894900001,0,2,2,4
2409054,Balaagh Mosque,2409,24,33.2063038800001,65.46905046,0,1,2,3
2409055,Boka Sof Mosque,2409,24,33.20917796,65.5249620700001,0,1,1,2
2406134,Shalizar Mosque,2406,24,33.63923501,65.7576218500001,0,1,2,3
2406135,Dasht Kiso Mosque,2406,24,33.4308661700001,65.8044562100001,0,1,2,3
2406137,Ghotla Mosque,2406,24,33.4213199600001,65.84716315,0,1,2,3
2501050,Sajawal School,2501,25,32.7765875740001,65.9164955680001,0,2,2,4
2502040,Girls High School,2502,25,32.62509329,65.4559343200001,0,5,0,5
2502042,Chatoo School,2502,25,32.7306592800001,65.4748798,0,1,4,5
2503017,Dinarkhel Girls School,2503,25,32.8613568700001,66.04271683,0,3,1,4
2503018,Qala-E-Ragh School,2503,25,32.8469367080001,66.050539928,0,1,3,4
2503020,Awiyan School,2503,25,32.9203170390001,66.0137799940001,0,0,1,1
2506046,Womens Clinic,2505,25,32.7388389700001,66.2817701600001,0,5,0,5
2501006,Talani Secondary School,2501,25,32.61809279,65.82220318,0,2,3,5
2501007,Garm Aab School,2501,25,32.5873055500001,65.957,0,2,2,4
2501011,Pirosha Madrassa Mosque,2501,25,32.6861116700001,65.8830093000001,0,2,3,5
2501012,Shah Hussain High School,2501,25,32.7339838200001,65.90733,0,2,2,4
2504030,Chahar Chino Bazar High School,2504,25,32.939945,65.564029,0,0,4,4
2504031,Chahar Chino Bazar Women'S Clinic,2504,25,32.94304256,65.5637784400001,0,4,0,4
2601002,Shekh Mati High School,2601,26,32.10349824,66.9138832700001,0,2,5,7
2601003,Kandak School,2601,26,32.10699395,66.91609981,0,2,3,5
2601008,Spina Ghbarga Madrassa,2601,26,32.1925943900001,67.0180208500001,0,2,5,7
2601009,Haji Allah Dad Mosque,2601,26,32.0824005000001,66.87705355,0,2,3,5
2602029,Ghaishi Rabat School,2602,26,31.89322648,66.5227827000001,0,0,3,3
2602030,Haji Khadi Khan Private House,2602,26,32.05792463,66.72946306,0,0,2,2
2603032,Spedar Village Mosque,2603,26,31.9151484500001,67.22626603,1,0,2,2
2603033,Syori (Shenkai) District Office,2603,26,31.97093948,67.0379149,0,2,2,4
2605019,Sardara School,2605,26,32.6237438100001,67.0501976900001,1,1,1,2
2606010,Baba Hotak High School,2606,26,32.5198139300001,67.41391912,0,1,6,7
2606014,Karbaghi School,2606,26,32.4775168100001,67.3764111,0,1,4,5
2606015,Sherzai Haji Abdullah Khan Mosque,2606,26,32.5147742100002,67.5369473400001,0,1,3,4
2601005,Sinak High School,2601,26,32.1146627200001,66.91530493,0,2,3,5
2601006,Chonai School,2601,26,32.10074875,66.89370716,0,2,4,6
2609042,Omomi School,2609,26,32.00536025,67.4830004,0,1,1,2
2609043,District Clinic,2609,26,32.20409758,67.6387580200001,0,1,1,2
2610038,Jangi Borj Mosque,2610,26,31.56277777,67.6161111100001,0,1,1,2
2610039,Seenzai School,2610,26,32.0167799800001,67.74406898,0,1,2,3
2601050,Resala Female School,2601,26,32.1102155230001,66.9144632900001,0,1,2,3
2602051,Muhammad Jan Village Mosque,2602,26,31.906913215,66.573372539,0,1,2,3
2603053,Ziarat Madrasa,2603,26,32.0268826850001,67.111875599,0,1,2,3
2603054,Bolan Mosque,2603,26,31.9009858080001,66.9376294990001,1,1,2,3
2603055,Roghani Mosque,2603,26,32.14138186,67.40730308,1,1,2,3
2605062,Moque,2605,26,32.6243969050001,67.2747868230001,1,1,2,3
2605063,Clinic,2605,26,32.6331739340001,67.1201879770001,1,1,2,3
2605064,Moque,2605,26,32.399549612,66.890350475,1,1,2,3
2608072,Village Center,2608,26,31.7027501860001,67.2273944750001,1,1,2,3
2608073,Madrasa,2608,26,31.784369095,67.3951957350001,0,1,2,3
2608074,Village Center,2608,26,31.7305036920001,67.517124104,1,1,2,3
2606069,Muqam School,2606,26,32.6851220720001,67.49409106,1,1,2,3
2606070,Qaiom Village School,2606,26,32.575642287,67.481234788,0,1,2,3
2602026,Boys School,2602,26,31.79946917,66.32468242,0,0,2,2
2602027,Girls School,2602,26,31.80171793,66.3249215500001,0,2,0,2
2605016,Akhtar Village School,2605,26,32.66678068,67.16164874,1,1,2,3
2605017,Saigaz Mosque,2605,26,32.5556781600001,67.03717642,1,1,2,3
2701005,Mir Bazar School,2701,27,31.6224471100001,65.7026817700001,0,0,5,5
2701006,Qawmi Secondary School,2701,27,31.6393986700001,65.7229955500001,0,3,3,6
2701040,Mirwais Neeka High School,2701,27,31.6212830000001,65.7304617300001,0,0,11,11
2701042,Shaheed Azeemullah School,2701,27,31.64059597,65.70153099,0,9,0,9
2702102,Sheen Awliya School,2702,27,31.7398762000001,65.7004348100001,0,0,3,3
2702103,Jala Oar School,2702,27,31.71188923,65.6545850300001,0,0,3,3
2702107,Manara School,2702,27,31.6873428000001,65.6095326400001,0,1,2,3
2702108,Khushal Khan School,2702,27,31.64907262,65.5854029300001,0,2,1,3
2703074,Sayed Mohammad Kor ,2703,27,31.47412105,65.9709932000001,0,0,2,2
2703075,Haji Sultan Mohammad Aka Private House,2703,27,31.572936,66.0403478200001,0,0,2,2
2704185,Girls School,2704,27,31.5430613500001,65.4555193900001,0,2,0,2
2704186,Chehl Ghor School,2704,27,31.5502932400001,65.46399049,0,0,2,2
2704189,Talgaan Village School,2704,27,31.43922059,65.31551355,0,1,1,2
2704190,Bazar Madrassa,2704,27,31.45634205,65.2706051900001,0,0,2,2
2705149,Awal Camp Tent,2705,27,31.6705750500001,65.3643277800001,0,1,1,2
2705150,Aashoqa School,2705,27,31.59774157,65.5096305800001,0,1,1,2
2705160,Amanullah School,2705,27,31.5309848500001,65.39318419,0,0,2,2
2705161,Haji Lala Oil Station,2705,27,31.62213409,65.52713516,0,1,2,3
2707120,Manan Khan Private House,2707,27,31.9746522,65.48098245,1,1,1,2
2707121,Haji Qayoom Guest House ,2707,27,31.9038589500001,65.49351383,0,1,1,2
2709130,Pir Khadim Mosque,2709,27,32.0784107100001,65.17564375,0,0,2,2
2710133,Mullah Ibrahim School,2710,27,31.5210216600001,65.23731446,1,0,2,2
2710134,Blagh Mosque,2710,27,31.79597125,65.0583367500001,1,1,1,2
2712263,District Building Office,2712,27,32.4213639300001,65.65759441,0,2,2,4
2712264,Haji Agha Lala Private House,2712,27,32.4196200700001,65.67159114,0,0,2,2
2715254,District Building Office,2715,27,31.6494085300001,67.17797326,0,2,3,5
2715255,Haji Manan Private House,2715,27,31.34158915,67.32400657,0,2,3,5
2715257,Obto School,2715,27,31.48632695,67.0352219900001,0,2,2,4
2715258,Aala Jirga Mosque,2715,27,31.3684926700001,67.7657899800001,0,2,5,7
2701010,Aino Secondary School,2701,27,31.6235961400001,65.6965109600001,0,5,1,6
2701012,Pakhwanai Walayat,2701,27,31.6181172,65.7126059,0,0,6,6
2701022,Mirwais Mena Girls School,2701,27,31.61567499,65.6472046400001,0,0,5,5
2701023,Sayed Jamaluddin High School,2701,27,31.6211406700001,65.76504105,0,0,6,6
2701061,Yateemano School,2701,27,31.6177175400001,65.6107392000001,0,1,3,4
2701062,Ameer Lalee Hotel,2701,27,31.6183483000001,65.8362914100001,0,3,4,7
2702109,Mohammad Yaqoob Qalacha School,2702,27,31.7340769600001,65.7256401500001,0,2,1,3
2702110,Baba Wali Sahib Old District Office,2702,27,31.6582072800001,65.6577980700001,0,0,3,3
2702113,Bagh Pul Hotel Park,2702,27,31.6134289,65.5777077700001,0,2,3,5
2702114,Khana Gardab Madrassa,2702,27,31.7801409600001,65.7466871000001,0,1,2,3
2703083,Azam Qala School,2703,27,31.6456955900001,65.9473361,0,2,2,4
2703084,Faram Tarank School,2703,27,31.4901840550001,65.8752743470001,0,2,2,4
2704193,Tranining Center Place,2704,27,31.3611022900001,65.4481241600001,0,4,4,8
2704194,Salihan Mosque,2704,27,31.56071513,65.5387117400001,0,1,1,2
2705163,Old Clinic,2705,27,31.5490208500001,65.3183611400001,0,1,2,3
2705164,Asad Soor School,2705,27,31.55722354,65.40918084,0,1,1,2
2706089,Wiyan Clinic,2706,27,31.9687947900001,65.9680107500001,0,3,2,5
2706090,Haji Fayab Private House,2706,27,32.07574627,66.02687838,0,0,2,2
2706091,Safullah Private House,2706,27,32.02147762,66.06644177,0,0,2,2
2706092,Malak Salam Private House,2706,27,31.9482679500001,66.0279960200001,0,2,2,4
2706095,Fazal Karam Mosque,2706,27,32.16932389,66.04625696,0,0,2,2
2706096,Khair Toot Clinic,2706,27,32.0287487300001,65.92734304,1,0,2,2
2707117,Tambeel School,2707,27,32.17210085,65.6085616300001,1,1,1,2
2707118,Naasir School,2707,27,31.98671283,65.60199657,0,0,2,2
2707124,Khakrez Village Clinic,2707,27,31.9860071300001,65.4716765500001,0,2,1,3
2707125,Malak Abdul Khaliq Private House,2707,27,32.00361111,65.62888888,1,1,1,2
2708246,Mohamamd Neeka School,2708,27,31.5629497100001,66.5850882500001,0,2,3,5
2708247,Speen Agra Mosque,2708,27,31.6940352,66.7329135000001,0,1,2,3
2708252,Taisan Village School,2708,27,31.3847627100001,66.54681623,0,2,2,4
2708253,Tesan Village School,2708,27,31.3329233100001,66.58131426,0,1,2,3
2710137,Shahidano School,2710,27,31.74779912,65.1299425200001,0,0,2,2
2710138,Mohammad Yousuf Private House,2710,27,31.63745174,65.0308180500001,0,0,2,2
2710144,Sardar Asad Private House,2710,27,31.5078044800001,65.2326402500001,0,1,1,2
2710145,District Building Office,2710,27,31.6226324,65.0561083600001,0,2,0,2
2710148,Balos Haji Amanullah Village ,2710,27,31.8014252900001,65.06197733,0,0,2,2
2711203,Haji Raziq Guest House,2711,27,30.99102689,66.41408787,0,1,5,6
2711208,Haji Ahmad Shah Market School,2711,27,30.9713621300001,66.4169155600001,0,3,3,6
2711209,Bambol Madrassa,2711,27,31.09279945,66.44213304,0,1,4,5
2711212,Qazi Madrassa,2711,27,31.0090424800001,66.3998673400001,0,2,4,6
2711213,Malyad Alizai,2711,27,31.002958,66.39174875,0,2,2,4
2712267,Haji Mirza Jamal Private House,2712,27,32.4138151500002,65.6521323200001,0,2,0,2
2712268,Wahab Khel School,2712,27,32.41398586,65.75547667,0,0,2,2
2714199,Wali Mohammad Khan Private House,2714,27,30.1795418500001,65.99435898,0,2,3,5
2714200,Faiz Mohammad Private House,2714,27,30.1375270400001,66.0031849700001,0,2,3,5
2717004,Haji Baba Guest House,2716,27,31.57355926,65.70954999,0,2,2,4
2717011,Rwani Secondary School,2716,27,31.5819141800001,65.64597159,0,3,3,6
2717021,Baldi Secondary School,2716,27,31.5828470700001,65.6818364000001,0,3,3,6
2717051,Chaplani School,2716,27,31.5489745800001,65.7217875600001,0,1,3,4
2718231,District Building Office,2716,27,31.3201569400001,65.9629319810001,0,3,2,5
2718232,Madad Khan School,2716,27,31.3233336130001,66.20142877,0,2,0,2
2718233,Madad Khan Village Clinic,2716,27,31.32856132,66.1673595330001,0,0,2,2
2718234,Road Side School,2716,27,31.1816830360001,65.979612295,0,2,2,4
2718235,Haji Mohammad Khan Village School,2716,27,31.1139538210001,66.0464469710001,0,2,3,5
2718236,Haji Mohmand Village School,2716,27,31.2942292600001,65.9790013400001,0,2,4,6
2718239,Maalem Sadullah School Tent,2716,27,31.0568672700001,66.0194489900001,0,4,4,8
2718240,Tangai Village Tent,2716,27,31.458441137,65.550920808,0,5,3,8
2701058,Shaheed Abdul Ahad Khan Karzai High School,2701,27,31.6212759700001,65.7465475700001,0,2,3,5
2701063,Abdul Hadi Dawi Secondary School,2701,27,31.60097461,65.676999,0,5,2,7
2702099,Ghazi Mohammad Akbar Khan School,2702,27,31.7224250000001,65.67305838,0,2,1,3
2703070,Haji Saifullah Oil Station School,2703,27,31.44772126,65.9120532800001,0,1,3,4
2703072,Latif Agha School,2703,27,31.6164547700001,65.97863744,0,1,1,2
2703085,Haji Anfiya Kalacha/Shorandam Markaz,2703,27,31.58322218,65.80766527,0,1,2,3
2703086,Tbc Clinic,2703,27,31.4260695410001,65.9269263580001,0,1,2,3
2704175,Talgaan Camp,2704,27,31.4497751800001,65.3207823500001,0,1,1,2
2704176,Shar Ali Camp,2704,27,31.4666463000001,65.2578358100001,0,1,1,2
2704180,Shamsuddin Kakar School,2704,27,31.54288046,65.4548809200001,0,0,2,2
2705155,6Th Camp School,2705,27,31.67175419,65.39819452,0,1,1,2
2705156,5Th Camp School,2705,27,31.62737545,65.4993206600001,0,1,1,2
2711205,Doctar Mohammad Dawood Private House,2711,27,30.9660853200001,66.4339183100001,0,1,5,6
2711227,Haji Kamaluddin Private House,2711,27,30.9850330400001,66.41453319,0,2,4,6
2716196,Sher Shah School,2716,27,29.7877545900001,65.6458410300001,0,3,3,6
2716197,Kaami School,2716,27,29.5818104400001,65.07035892,0,2,4,6
2717064,Zakir Sharif School,2716,27,31.5813352500001,65.6504037300001,0,2,4,6
2718237,Peer Mohammad Private House,2716,27,31.3935219200001,65.8366882620001,0,4,4,8
2718238,Camp School,2716,27,31.4771776110001,65.7124261470001,0,4,4,8
2801025,Afghan Tapa High School,2801,28,36.53147198,65.7963583100001,0,2,4,6
2801026,Chaharshanba Secondary School,2801,28,36.7331063500001,65.83629619,0,2,3,5
2801027,Lab Jar Khurasan Secondary School,2801,28,36.6621130900001,65.70772241,0,1,2,3
2801028,Chobash Kalan Secondary School,2801,28,36.6816790350001,65.751975004,0,1,2,3
2801031,Shakarak Secondary School,2801,28,36.6017747200001,65.7513421100001,0,1,2,3
2801032,Hassan Tabeen High School,2801,28,36.61539363,65.76944668,0,1,2,3
2803118,Bakawal Turkmania Mosque,2803,28,36.88280696,66.1010083200001,0,1,1,2
2803119,Aleek Rabat Secondary School,2803,28,36.84241831,66.1083676900001,0,1,2,3
2805090,Choqma Chaqoor School,2805,28,36.16901708,65.46201696,0,2,2,4
2805091,Jarqadoq School,2805,28,36.3045764700001,65.48422199,0,1,3,4
2805093,Khatai Say Shor Qadoq ,2805,28,36.3175144500001,65.3057635800001,1,1,1,2
2805094,Taraghali School,2805,28,36.19268868,65.4559393500001,0,1,1,2
2807038,Aaqcha Girls High School,2807,28,36.9125815400001,66.1831244,0,2,2,4
2807039,Abu Bakr Sediq Mosque,2807,28,36.9065459,66.1890613300001,0,2,2,4
2808052,Bala Mardiyan Boys High School,2808,28,36.92369511,66.4924709200001,0,1,2,3
2808053,Noor Abad Secondary School,2808,28,36.8228141700001,66.3857985600001,0,1,1,2
2809063,Hindukush Primary School,2809,28,36.8984610600001,66.2674589600001,0,1,2,3
2809064,Farok Qala Secondary School,2809,28,37.0248729900001,66.35597865,0,1,1,2
2809068,Saltaq School,2809,28,36.8609694600001,66.3116486100001,0,1,1,2
2810080,Makhdoom Qali Faraghi High School,2810,28,37.41319326,66.03388355,0,3,5,8
2810081,Joy Sarai Secondary School,2810,28,37.40445102,66.0689311700001,0,1,3,4
2810082,Kok Secondary School,2810,28,37.3455302830001,66.192821144,0,1,1,2
2811096,Darzaab Boys High School,2811,28,35.97807055,65.38575476,0,1,2,3
2811097,Abu Zar Ghaffari School,2811,28,35.97869227,65.3960793700001,0,1,2,3
2811102,Tash Jawaz School,2811,28,36.0275745600001,65.48009886,0,1,2,3
2811103,Badam Lek ,2811,28,35.9880600300001,65.30285258,0,1,1,2
2801011,Kok Gunbad Girls High School,2801,28,36.64339751,65.76628845,0,2,3,5
2801012,Arab Khana High School,2801,28,36.65605427,65.7772442200001,0,2,4,6
2801020,Aalti Khwaja High School,2801,28,36.6505147800001,65.7987049200001,0,2,4,6
2801021,Qara Kent Boys High School,2801,28,36.55976264,65.8123692600001,0,2,3,5
2802112,Chob Bash High School,2802,28,36.7586346100001,65.6323822200001,0,1,2,3
2803120,Khanqah Uzbekya Girls High School,2803,28,36.8694820160001,66.1699978400001,0,1,2,3
2803121,Siyah Kamar Mosque,2803,28,36.58534645,66.2253998300001,1,1,1,2
2804072,Safar Wali Awal School,2804,28,37.0625124600001,66.06001537,0,1,2,3
2804075,Qowenli Muhajir School,2804,28,37.03736691,65.96813097,0,1,1,2
2804076,Sultan Areegh School,2804,28,36.9187633200001,66.05047808,0,1,2,3
2804079,Qara-E-Adeek Mosque,2804,28,37.0730269200001,65.9458042000001,0,1,1,2
2805088,Sher Bek School,2805,28,36.06262223,65.37244852,0,2,3,5
2807042,Laghmani Mosque,2807,28,36.8863406900001,66.2211692700001,0,1,2,3
2807043,Yandagh Areegh Mosque,2807,28,36.84677491,66.24548547,0,1,1,2
2801004,General Abdul Rashid Dostam High School,2801,28,36.6593043700001,65.7747411,0,2,4,6
2801005,Zokoor Yaka Bagh Boys High School,2801,28,36.68300868,65.7574523000001,0,2,3,5
2807044,Yangee Areegh Turkmania Boys High School,2807,28,36.9178084400001,66.1583507200001,0,2,3,5
2807045,Besh Kapa Surkh School,2807,28,36.8884185200001,66.15488049,0,1,3,4
2808049,Shaheed Latifa Habibi Girls High School,2808,28,36.8239055400001,66.4563158500001,0,1,1,2
2808054,Shisha Khana Boys High School,2808,28,36.787783,66.46061417,0,1,1,2
2808055,Memleek Secondary School,2808,28,36.8481113500001,66.5292795900001,0,1,1,2
2808056,Koshgak Girls High School,2808,28,36.8023616600001,66.5648053,0,1,1,2
2808057,Garjak Boys Secondary School,2808,28,36.7733845300001,66.5010110800001,0,1,2,3
2808059,Nasrat Abad Secondary School,2808,28,36.8614073200001,66.4129996900001,0,1,1,2
2809061,Jangal Areegh Secondary School,2809,28,36.9469352300002,66.26003749,0,2,3,5
2809066,Cheleek Ganj Secondary School,2809,28,37.0109254000001,66.2353995100001,0,1,1,2
2811106,Aqsaay School,2811,28,36.09054113,65.5214442,0,1,1,2
2811107,Turkman Qadoq School,2811,28,35.9793899360001,65.3757825150001,0,1,1,2
2808126,Char Bagh High School,2808,28,36.8557245960001,66.4599363020001,0,1,2,3
2811127,Secondary School,2811,28,35.9916195530001,65.1973117550001,0,1,2,3
2901008,Sar Balaq School,2901,29,35.9485696300001,64.7397958300001,0,1,2,3
2901009,Abu Muslim Khurasani Madrassa,2901,29,35.9152295700001,64.7791788200001,0,0,4,4
2901014,Maimana Agriculture Vocational High School,2901,29,35.9252967300001,64.7706345900001,0,0,4,4
2901015,Deh Sayedan Girls High School,2901,29,35.90736653,64.8035178400001,0,1,2,3
2902018,Khwaja Namosi Boys School,2902,29,36.0352410300001,64.6649713700001,0,0,2,2
2902019,"Meng Darakht, Khwaja Namosi",2902,29,36.07774103,64.5824078800001,1,1,1,2
2902023,Khwaja Namosi Girls School,2902,29,36.0449373400001,64.654321,0,3,0,3
2902024,Telaan Mosque,2902,29,35.53557283,64.8059525100001,0,1,1,2
2902028,Mir Qasim Madrassa,2902,29,35.64062794,64.97846193,0,1,1,2
2902029,Chehak Gleem Baft Mosque,2902,29,35.66360644,64.93290691,0,1,2,3
2902048,Halwa Khor Bala Mosque,2902,29,35.63135288,64.65290167,0,1,1,2
2902049,Arab Aqsai Boys Secondary School,2902,29,35.9108674,64.6452403900001,0,1,1,2
2902051,Jamshidi Secondary School,2902,29,35.88823922,64.82447954,0,1,2,3
2902052,Dahendara School,2902,29,35.83350382,64.8672403700001,0,1,2,3
2902201,Jar Qala Khwaja Musa Mosque,2902,29,36.01063214,64.68608003,0,1,1,2
2902202,Arab Kawan Bashi Mosque,2902,29,35.84077368,64.65976127,0,1,1,2
2904065,Chaghatak Mosque,2904,29,35.8823636700001,64.5833181,0,2,2,4
2904066,Aiti Oroq Mosque,2904,29,35.7867354,64.5360558700001,0,1,1,2
2904068,Badghisi Mosque,2904,29,35.9143256800001,64.4937855900001,0,1,1,2
2904069,Khwaja Gawhar,2904,29,35.9201461800001,64.2812525200001,1,2,2,4
2905143,Qorgh Khwaja Arab Mosque,2905,29,35.9604612300001,65.52694338,0,2,2,4
2905207,Qerma Mosque,2905,29,35.9431718900001,65.19112297,0,1,1,2
2906145,Gul Qadoq Boys School,2906,29,36.1358816200001,65.0815397800001,0,1,2,3
2906146,Tapa Qala Mosque,2906,29,36.2570898400001,64.8555587100001,0,1,2,3
2907087,Khwaja Kanti Mosque,2907,29,35.6005784300001,64.0230034300001,1,1,2,3
2907088,Waimas School,2907,29,35.68626537,64.0304982200001,0,1,1,2
2907098,As-Haab Kahf Mosque,2907,29,35.7261874600001,63.9387528600001,1,1,1,2
2907099,Sar Takht Mosque,2907,29,35.74739416,63.83238126,0,1,1,2
2907106,Chakna Yozbegi School,2907,29,35.5969722300001,64.30550956,0,1,2,3
2907107,Ghora Mosque,2907,29,35.5900747200001,64.1613291900001,0,1,2,3
2907109,Sayad Naqi Mosque,2907,29,35.67212603,64.53667042,0,1,2,3
2908135,Mullah Ghulam Sakhi Dahandara House,2908,29,35.59361105,65.0790376,0,2,1,3
2909164,Char Shangho Secondary School,2909,29,36.4646432100001,64.8968979,0,1,3,4
2909165,Khair Abad Primar School,2909,29,36.3917578300001,64.9354332700001,0,1,3,4
2909168,Joq Ha Mosque,2909,29,36.3349380300001,64.90396288,0,1,2,3
2909169,Shashpar ,2909,29,36.50325567,64.85587078,0,2,2,4
2910121,Qadoghak School,2910,29,35.34094386,64.7399073800001,0,1,2,3
2910122,Takhta Band Lafra Mosque,2910,29,35.2298316300001,64.5936421300001,0,1,2,3
2913185,Qazi Baba Murad High School,2913,29,36.9560682300001,65.1157745500001,0,2,3,5
2913186,Dawlat Geldi High School,2913,29,36.9512076100001,65.14060093,0,2,3,5
2914176,Rahman Qol Shaheed High School,2914,29,36.98423599,65.1777531200001,0,1,3,4
2914177,Chakman High School,2914,29,36.9493379400001,65.2131962,0,1,3,4
2914180,Arab Shah Payeen Girls High School,2914,29,36.9904859700001,65.1617033200001,0,1,1,2
3001001,Haji Tawos Mosque,3001,30,31.6120873800001,64.46979044,0,2,2,4
2901003,Sayad Rajab High School,2901,29,35.9027389400001,64.7627352400001,0,2,2,4
2901004,Afghan Kot Girls High School,2901,29,35.9159939700001,64.79011901,0,4,0,4
2902020,Qasaba Qala School And Mosque,2902,29,36.03463771,64.5566915600001,1,1,1,2
2902021,Gadai Qala Boys School,2902,29,36.02271593,64.6924767500001,0,1,1,2
2902035,Omomi Zarshoy Mosque,2902,29,35.9064031600001,65.09922394,0,1,1,2
2902038,Tirak Lek Mosque,2902,29,35.9552662900001,65.1385871900001,0,1,1,2
2902039,Burhan Bay Mosque,2902,29,35.74357546,64.80857297,0,1,1,2
2902044,Taklai Hazar Sam Mosque,2902,29,35.7695650800001,64.6998428500001,0,1,1,2
2902045,Moqani Mosque,2902,29,35.8199191700001,64.67728527,0,1,1,2
2903057,Bolak Bacha Solidarity Council Building,2903,29,36.0381600200001,64.97654448,0,1,2,3
2903058,Deh Naw Boys High School,2903,29,36.07255767,64.8409815000001,0,2,2,4
2903061,Samleek Pogani Solidarity Council Building,2903,29,36.0298633400001,64.8747361000001,0,1,1,2
2903062,Badghisi Girls High School,2903,29,36.04318238,64.8487503,0,2,1,3
2904063,Almaar Boys High School,2904,29,35.8473631700001,64.5336904800001,0,2,2,4
2904072,Mir Shadi Primary School,2904,29,35.84646575,64.37250297,0,1,2,3
2904073,Qarayee Secondary School,2904,29,35.5638859,64.5691070900001,0,1,2,3
2904076,Khosh Bayee Primary School,2904,29,35.57594462,64.5987045100001,0,1,2,3
2904077,Aaq Masjid Primary School,2904,29,35.5908049700001,64.5498109500001,0,1,1,2
2905138,Balcheragh Madrassa,2905,29,35.8431891400001,65.2317160800001,0,2,2,4
2905139,Tash Qala Boys School,2905,29,35.89682909,65.5158770800001,0,2,2,4
2906149,Islam Qala Boys School,2906,29,36.22613555,64.8639899500001,0,2,3,5
2906150,Mahd School,2906,29,36.1553972700001,64.9506300400001,0,2,3,5
2906208,Kalta Shor Mosque,2906,29,36.10979108,65.01539425,0,1,2,3
2907080,Khwaja Aspalan Mosque,2907,29,35.7482801700001,64.0187365300001,1,3,2,5
2907095,Karez Mosque,2907,29,35.76245604,63.910347,0,1,1,2
2907096,Chaharshanba Uzbekya Mosque,2907,29,35.75095501,63.98580072,0,1,1,2
2907204,Khatayee Mosque,2907,29,35.6785132100001,64.0598046900001,0,1,1,2
2908123,Gholbayan Mosque,2908,29,35.7353697300001,65.3557827800001,0,2,1,3
2908126,Takhara Mosque,2908,29,35.70499036,65.33273774,0,2,2,4
2908127,Dara-E-Zang Madrassa,2908,29,35.63678932,65.2808628100001,0,2,3,5
2910116,Dasht Sahrayee Malghi Mosque,2910,29,35.33051935,64.4361626000001,0,1,1,2
2910117,Baam Surkh Mosque,2910,29,35.39420904,65.2610773100001,0,1,1,2
2912192,Khalifa Abdullah Mosque,2912,29,36.95829396,65.07228939,0,1,1,2
2912193,Kuhna Qarghan Primary School,2912,29,36.9171274200001,65.0695866,0,1,2,3
2903210,Yangi Qala Mosque,2903,29,36.0892035520001,64.86351618,0,1,2,3
2903211,Qezl Qshlaq Male School,2903,29,36.0222672960001,64.8713415620001,0,1,2,3
2908213,Pakhal Soz Female School,2908,29,35.678313952,65.2767557870001,0,1,2,3
2910214,Mosque,2910,29,35.386369879,65.3564799000001,0,1,2,3
2901010,Jarnail Ghawsuddin Secondary School,2901,29,35.9216572600001,64.77659554,0,0,4,4
2901011,Pasha Khani Girls School,2901,29,35.90946155,64.77830134,0,4,0,4
2901199,Veterinary Mudiriyat,2901,29,35.9269239800001,64.784409,0,2,2,4
2903056,Shabakhto Girls School,2903,29,35.9718186800001,64.8938134700001,0,1,2,3
2906154,Shah Yousuf Boys Secondary School,2906,29,36.31211014,64.95232285,0,1,1,2
2906155,Shamsuddin Shaheed High School,2906,29,36.29248254,64.87232578,0,2,2,4
2907091,Jegdalek Mosque,2907,29,35.78450669,64.28192101,0,1,2,3
2907092,Sawr Mosque,2907,29,35.7291807300001,64.3366738700001,0,1,1,2
2908132,Jar Qala High School,2908,29,35.6936387200001,65.1646797400001,0,2,2,4
2908133,Tagab Shan Madrassa,2908,29,35.6723752500001,65.13935272,0,2,2,4
2910205,Ulyand Bandar Mosque,2910,29,35.3551735800001,64.7355759100001,0,1,1,2
2911170,Qaramqol Boys High School,2911,29,36.86448903,65.08320934,0,1,2,3
2911173,Yousuf Mir Zayee Girls School,2911,29,36.83874903,65.13707114,0,2,2,4
2911174,Aalti Bolak Girls School,2911,29,36.85367332,65.0816542900001,0,2,2,4
2912198,Bagh Bostan High School,2912,29,36.9190698200001,65.09308753,0,2,2,4
2913181,Yoldoz Girls High School,2913,29,36.94528897,65.1232858600001,0,3,3,6
2913183,Yangee Tigarman Girls High School,2913,29,36.90594371,65.1121720900001,0,3,3,6
3001003,Girls High School,3001,30,31.5864526900001,64.3655562800001,0,5,0,5
3001004,Boys Secondary School,3001,30,31.58533434,64.3656098100001,0,0,5,5
3001012,Numarat C1 School,3001,30,31.6073465900001,64.37508093,0,0,4,4
3001013,Tor Tank Boys School,3001,30,31.59794416,64.3613204500001,0,1,8,9
3002062,Dahna 31 Gharbi Primary School,3002,30,31.7266141400001,64.3181833200001,0,0,6,6
3002065,Naqil Abad School,3002,30,31.6954167000001,64.2710575500001,0,0,4,4
3004038,Gereshk Haji Fabrika,3004,30,31.8209806,64.56035125,0,2,3,5
3004039,Girls High School,3004,30,31.82000645,64.57012669,0,4,0,4
3006121,Hassan Abad Barjawi School,3006,30,31.07603693,64.1709948700001,0,0,3,3
3008129,Central Hospital,3008,30,32.0576183600001,64.84086052,0,5,0,5
3008130,Central Mosque,3008,30,32.0719374600001,64.83753068,0,0,5,5
3014086,Block 4 - F Building,3011,30,31.5145591000001,64.0665271,0,1,2,3
3014087,Faizullah Private House (Kochi Center),3011,30,31.5291449800001,64.2304271900001,0,1,2,3
3002070,Loy Bagh School,3002,30,31.6301187000001,64.2629344700001,0,1,3,4
3002071,Chah Enjeer High School,3002,30,31.6814652400001,64.31261712,0,2,2,4
3002080,Sheen Village School,3002,30,31.64180542,64.21993969,0,1,3,4
3002081,Noor Mohammad Village School,3002,30,31.7161686900001,64.1260630700001,0,1,3,4
3003092,Mangal Zai School,3003,30,31.4249040800001,64.3611019000001,0,1,3,4
3003093,Khalj High School,3003,30,31.3777902600001,64.2820846600001,0,0,4,4
3003103,Kharaba Clinic,3003,30,31.407990661,64.3449272400001,0,0,4,4
3003104,Baslan Clinic,3003,30,31.3545331400001,64.29419262,0,0,4,4
3006114,Haji Hazrat Ali Khan Village School,3006,30,31.0460618800001,64.2012155,0,1,4,5
3006115,Kodalee School,3006,30,31.0178955700001,64.18516786,0,0,3,3
3007204,District Center School,3007,30,32.40445721,64.4709456400001,0,1,6,7
3008133,Sher Ali Mosque,3008,30,32.15928941,64.9636193500001,0,1,3,4
3008134,Nasozi School,3008,30,32.1716380200001,64.96966258,0,0,5,5
3009180,Akhtar Jan Market,3009,30,32.35121228,64.7729255800001,0,2,4,6
3009187,Cheek Aab School,3009,30,32.2802201700001,64.8110622700001,0,2,3,5
3014074,Marja Block 9 School,3011,30,31.3890808,64.0722895700001,0,1,2,3
3014075,Malak Private House,3011,30,31.4710414700001,64.0460482,0,2,6,8
3001010,Karta-E-Lagan High School,3001,30,31.59188774,64.37544581,0,0,7,7
3001019,Haji Kareem Dad Village School,3001,30,31.50202868,64.3673263000001,0,4,0,4
3001029,Korghojat School Babaji,3001,30,31.72487052,64.41792956,0,2,2,4
3001030,Khan Mohammad Mosque,3001,30,31.63788901,64.3575695200001,0,3,3,6
3003107,Gorgeen Sufla School,3003,30,31.4607026000001,64.33702285,0,1,3,4
3003108,Gorgeen Ulya School,3003,30,31.36278231,64.32043605,0,1,3,4
3004055,Haji Saleem Private House,3004,30,31.8381592200001,64.62951415,0,1,3,4
3006125,Hazar Joft Village School,3006,30,31.13096019,64.1984617100001,0,2,2,4
3011217,District Building Office,3011,30,30.5513746600001,63.7856295,0,1,2,3
3014083,Marja Block 11 Khord School,3011,30,31.37106128,64.1019913200001,0,1,2,3
3102028,Jafari High School,3102,31,35.21470479,63.0176992400001,0,1,2,3
3102037,Mobarak Shah Secondary School,3102,31,35.0487565700002,63.0492787800001,0,1,1,2
3102038,Sang-E- Khars School,3102,31,35.0847701500001,63.0637632000001,0,1,1,2
3102048,Kokjail Village School,3102,31,34.8683027800001,62.82235,0,1,1,2
3102049,Aab Barik School,3102,31,34.8995323000001,62.7196765300001,0,1,2,3
3103022,Khwaja Pesta Village Mosque,3103,31,35.10643408,63.2009066300001,0,1,2,3
3103023,Jaknah Primary School,3103,31,35.09738581,63.2361428300001,0,1,1,2
3104054,Jamiat High School,3104,31,34.8022571900001,63.44161237,0,1,2,3
3104064,Arbab Mohammad Village ,3104,31,34.7152978700001,63.5693435700001,0,1,1,2
3104065,Deh Aabi Village ,3104,31,34.6522035200001,63.5992238200001,0,1,1,2
3104079,Bargul Village Madrassa,3104,31,34.60710221,63.78179114,0,1,1,2
3105147,Markaz Murghab School,3105,31,35.5819330350001,63.3331155120001,0,0,2,2
3105149,Joy-E-Khwaja School,3105,31,35.5527130800001,63.33346585,0,1,2,3
3105150,Buz Baye Mosque,3105,31,35.458522,63.366289,0,1,1,2
3106109,Takht-E- Zard Village Mosque,3106,31,35.1590104800001,64.4295459900001,0,1,1,2
3106110,Ghow Kalan Village Mosque,3106,31,34.9732941300001,64.23015565,0,1,1,2
3106112,Rubat Mosque,3106,31,34.8974285500001,64.35858413,0,1,1,2
3106113,Rubatak Mosque,3106,31,34.8976577900001,64.35868406,0,1,1,2
3107129,Pai-E-Makhto Mosque ,3107,31,35.6618818100001,63.82210743,1,1,1,2
3107130,Kariz-E- Dwana Village Mosque ,3107,31,35.6369625400001,63.84113391,1,1,1,2
3107140,Petow Village Mosque,3107,31,35.7406764600001,63.81851307,0,1,2,3
3101002,Shahr-E-Qala-E-Now Girls School,3101,31,34.9841503500001,63.1306669400001,0,4,2,6
3101003,Ferestan School,3101,31,35.0157339600001,63.1329669100001,0,2,3,5
3101006,Qarqeito School,3101,31,34.9751301600001,63.1527701100001,0,1,2,3
3101007,Khareesan School,3101,31,34.9475996600001,63.21159651,0,2,2,4
3101012,Malmanji Mosque,3101,31,34.7266644000001,63.20769556,0,2,2,4
3101013,Tagab Esmaeel School,3101,31,34.96876345,63.09848979,0,1,2,3
3101017,Aalam Chob Bazar,3101,31,34.8188723400001,63.02480598,0,2,2,4
3101018,Chakab Clinic,3101,31,34.76937338,63.0521375200001,0,2,2,4
3102043,Gandah Aab School,3102,31,34.80191009,62.89362415,0,1,2,3
3102044,Dehistan Village Mosque,3102,31,34.6917103800001,62.9274817300001,0,1,2,3
3104058,Joleeq School,3104,31,34.7042330100001,63.3732450800001,0,1,2,3
3104059,Boyaha Village,3104,31,34.72685645,63.4540234400001,0,1,1,2
3104068,Bab-E- Doosti Village ,3104,31,34.9607522800001,63.3039606200001,0,1,1,2
3104069,Takak School,3104,31,34.82147749,63.5120980200001,0,1,1,2
3104076,Gunbad Shekh Ghiasuddin Madrassa,3104,31,34.8533333300001,63.7213888800001,0,1,1,2
3104077,Nayek Mosque,3104,31,34.76677104,63.713642,0,1,1,2
3104082,Khair Khana Mosque,3104,31,34.9646667000001,63.6259707100001,0,1,1,2
3106093,Meel Naw Mosque,3106,31,34.7517204300001,63.97969871,0,1,1,2
3106094,Aab Khor School,3106,31,34.81455451,64.0682415300001,0,1,1,2
3106104,Chushm Bed Mosque,3106,31,34.94636473,64.6295265200001,0,1,1,2
3106105,Chushma Char Village Mosque,3106,31,34.8910211800001,64.6005447600001,0,1,1,2
3106116,Mawladad Mosque,3106,31,35.28084933,64.27017166,0,1,1,2
3106120,Dahan-E- Khesi Village Mosque,3106,31,35.38943605,64.0691541,0,1,1,2
3106121,Sebak Village Mosque,3106,31,35.37959956,64.1025058800001,0,1,1,2
3107124,Center School,3107,31,35.7394835600001,63.78017896,0,0,3,3
3107125,Abgarmak Village,3107,31,35.7374207300001,63.8246876200001,0,1,2,3
3101008,Social Center Building Najakzad Sarhang Village,3101,31,34.8036111100002,63.24,0,1,3,4
3101009,Baghak School,3101,31,34.95469535,63.1396554500001,0,2,3,5
3102035,Hichkah High School,3102,31,35.15100816,63.0591506800001,0,1,1,2
3102045,Sina Urdo Mosque,3102,31,34.7056232800001,62.8197406100001,0,1,2,3
3102046,Padeh Laghari School,3102,31,34.8921869000001,62.9048612,0,1,2,3
3102175,Takh-E-Dara Kockchail School,3102,31,34.8718986600001,62.85200133,0,1,2,3
3102176,Serzarak Village School,3102,31,34.78142015,62.9718812100001,0,1,1,2
3103020,District Building And Rubat Clinic,3103,31,35.0793901700001,63.27010217,0,1,2,3
3106091,Rigee Village Mosque,3106,31,34.84852773,63.7985788600001,0,1,1,2
3106101,Kazak Village Mosque,3106,31,35.0829324500001,64.3422431100001,0,1,1,2
3107138,Sharshar-E- Abdurahman Village ,3107,31,35.5664789600001,63.7674654900001,1,1,1,2
3106199,Pai Chang Mosque,3106,31,34.7803987450001,64.391080097,0,1,2,3
3106200,Hazrat Mullah Mosque,3106,31,34.8717687630001,64.3625978110001,0,1,2,3
3104193,Shorak Mosque,3104,31,34.7125943280001,63.8617611120001,0,1,2,3
3105194,Kapa Baba Village,3105,31,35.55351431,63.355167128,0,1,2,3
3201005,Jami High School,3201,32,34.3441926000001,62.20011509,0,4,4,8
3201006,Khwaja Mohammad Taki High School,3201,32,34.3400020100001,62.1997193500001,0,5,4,9
3201008,Balian Boys School,3201,32,34.3427703400001,62.21013623,0,3,2,5
3201009,Mehdeiah Ghur -E- Darwaz,3201,32,34.360024,62.19608942,0,4,3,7
3201011,Experimental School,3201,32,34.35962063,62.2059547000001,0,5,4,9
3201012,Merman Hayati Bagh- E- Dasht High School,3201,32,34.3603460100001,62.1977121800001,0,3,3,6
3201021,Ekhtiarudden Mosque,3201,32,34.3440825000001,62.18939018,0,0,5,5
3201022,Amir Ali Shir Nawayee School,3201,32,34.35959036,62.2171719,0,3,3,6
3201026,Salahuddin Saljoqi School,3201,32,34.3841558300001,62.16838743,0,3,3,6
3201027,Abdul Ali Shah Tokhi School,3201,32,34.3646019100001,62.1843235100001,0,3,3,6
3201029,Hareewa Secondary School,3201,32,34.33518541,62.19016225,0,3,3,6
3201030,Hazrat -E- Belal Mosque,3201,32,34.3331436300001,62.1762114700001,0,4,4,8
3201430,Imigration Department ,3201,32,34.3789430260001,62.1507438910001,0,3,3,6
3202033,Paienda Mosque ,3202,32,34.29685683,62.20864076,0,2,0,2
3202034,Qafaslan Mosque,3202,32,34.3133028550001,62.1911616770001,0,2,2,4
3202067,Shaheed-E-Dashti High School,3202,32,34.3309318,62.2445248400001,0,1,1,2
3202068,Tawah Beryan School,3202,32,34.32899342,62.3249368800001,0,1,2,3
3202072,Immigrants Office,3202,32,34.4217740900001,62.0538391100001,0,1,1,2
3202073,Eshaq Suliman High School,3202,32,34.40209106,62.1293774100001,0,3,2,5
3202077,Khwaja Abdullah Ahrar Secondary School ,3202,32,34.3075111000001,62.17282629,0,1,1,2
3202434,Rubat-E-Srosetan Mosque,3202,32,34.30480207,62.1220489300001,0,1,2,3
3202435,Babaji High School,3202,32,34.3782421700001,62.17393135,0,1,3,4
3203088,Kort-E-Sufla Mosque,3203,32,34.2315567100001,62.31641613,0,1,3,4
3203089,Char Kabotar Khan Mosque ,3203,32,34.24109712,62.28791748,0,1,1,2
3203099,Kofan High School ,3203,32,34.2140611900001,62.10583545,0,1,1,2
3203100,Zangan Secondary School ,3203,32,34.2489185900001,62.09816097,0,1,1,2
3203116,Kochis Location,3203,32,34.0253139860001,61.654794549,0,2,2,4
3204148,Karrokh Primary School,3204,32,34.4922903900001,62.5820760100001,0,2,4,6
3204149,Sabz Posh Mosque ,3204,32,34.4767006900001,62.5869351100001,0,1,3,4
3204151,Dahan Ghar School ,3204,32,34.45712157,62.5527925500001,0,1,2,3
3204152,Mujqandak School ,3204,32,34.4538021500001,62.4867525100001,0,1,2,3
3204155,Faliz Kar School,3204,32,34.4978445800001,62.41782183,0,1,1,2
3204156,Maluma School ,3204,32,34.4813263900001,62.71569897,0,1,1,2
3205263,Jadah-E- Shadah School ,3205,32,34.4049880200001,61.6659290800001,0,2,1,3
3205264,Shaikh Abu Lais School ,3205,32,34.3938606200001,61.6839298700001,0,1,2,3
3205274,Mulkiha New School ,3205,32,34.33497548,61.7166939800001,0,1,2,3
3205457,Kariz Pada Clinic,3205,32,34.0308862800001,61.88833484,0,1,1,2
3206122,Bazyan Mosque,3206,32,34.2418739800001,62.7517183,0,0,2,2
3206123,Bazyan School,3206,32,34.2400233500001,62.7521145800001,0,2,0,2
3206137,Ghooran School ,3206,32,34.2930279600001,62.46391743,0,1,1,2
3206138,Mar Abad Secondary School ,3206,32,34.25613486,62.88819884,0,2,3,5
3206140,Turan School ,3206,32,34.3093249400001,62.5618223600001,0,1,1,2
3207168,Chahar Aolang School ,3207,32,34.7234839600001,62.0554649200001,0,1,2,3
3207179,Khaleefa Rahmat School ,3207,32,34.7653331700001,62.2907589100001,0,1,2,3
3207189,Torghandi Awal School ,3207,32,35.2439543700001,62.2831094200001,0,0,4,4
3207190,Girls High School ,3207,32,35.2439518800001,62.28299744,0,4,0,4
3207444,Nsp Building,3207,32,35.2233044300001,62.12306472,1,1,1,2
3207446,Muqoor Mosque ,3207,32,35.0757868200001,62.1000297900001,0,1,1,2
3208196,Qarabagh Primary School ,3208,32,34.93841678,61.77532915,0,1,4,5
3208224,Rig Abad Mosque,3208,32,35.0693958900001,61.63138501,0,1,1,2
3208225,Aab -E -Safed Mosque,3208,32,34.9660933,61.6082023000001,0,1,2,3
3209284,Jahan Khan Mosque ,3209,32,33.8277775800001,62.3496322400001,0,1,1,2
3209285,Kharbed-E- Mir Abad School ,3209,32,33.6205689300001,62.6663380700001,0,1,2,3
3210407,Kakalam Duowm Girls Secondary School ,3210,32,34.8505656400001,62.56135058,0,2,0,2
3210408,Khum Kaj Village Open Space,3210,32,34.86997576,62.5343310700001,1,1,4,5
